OrganisationID,OrganisationCode,OrganisationType,SubType,OrganisationStatus,IsPimsManaged,isEPSEnabled,OrganisationName,Address1,Address2,Address3,City,County,Postcode,Latitude,Longitude,ParentODSCode,ParentName,Phone,Email,Website,Fax
2915,Y02622,GP,UNKNOWN,Visible,TRUE,TRUE,Blackfriars,138 Chapel Street,,Salford,,England - Uk,M3 6AF,53.48394012,-2.254740715,01G,NHS Salford CCG,0161 819 4790,,,0161 819 4791
3028,A81001,GP,UNKNOWN,Visible,TRUE,TRUE,The Densham Surgery,Health Centre,Lawson Street,Stockton On Tees,Cleveland,,TS18 1HU,54.56169128,-1.318922877,00K,NHS Hartlepool And Stockton-On-Tees CCG,01642 606490,,,01642 618112
3029,A81002,GP,UNKNOWN,Visible,TRUE,TRUE,Queens Park Medical Centre,Farrer Street,Stockton On Tees,Cleveland,,,TS18 2AW,54.56902313,-1.313913107,00K,NHS Hartlepool And Stockton-On-Tees CCG,01642 679681,,http://www.qpmc.org.uk,01642 677124
3030,A81003,GP,UNKNOWN,Visible,TRUE,TRUE,Victoria Medical Practice ,Health Centre,Victoria Road,Hartlepool,Cleveland,,TS26 8DB,54.68514252,-1.217600822,00K,NHS Hartlepool And Stockton-On-Tees CCG,01429 272945,,http://www.victoriamedicalpractice.com,01429 867797
3031,A81004,GP,UNKNOWN,Visible,TRUE,TRUE,Woodlands Surgery,6 Woodlands Road,,Middlesbrough,,,TS1 3BE,54.57161331,-1.232259035,00M,NHS South Tees CCG,01642 247982,,,01642 241636
3032,A81004,GP,UNKNOWN,Visible,TRUE,TRUE,Acklam Road Surgery,283 Acklam Road,Middlesbrough,Cleveland,,,TS5 7BP,54.54537964,-1.257855892,00M,NHS South Tees CCG,01642 818952,,,
3033,A81005,GP,UNKNOWN,Visible,TRUE,TRUE,Springwood Surgery,Rectory Lane,Guisborough,Cleveland,,,TS14 7DJ,54.53260803,-1.055412769,00M,NHS South Tees CCG,01287 619611,rc-pct.springwood@nhs.net,http://www.springwoodsurgery.co.uk/,01287 619613
3034,A81006,GP,UNKNOWN,Visible,TRUE,TRUE,Tennant Street Medical Centre,The Surgery,Tennant Street,Stockton-on-Tees,,,TS18 2AT,54.56859589,-1.313549042,00K,NHS Hartlepool And Stockton-On-Tees CCG,01642 613331,,,01642 675612
3035,A81007,GP,UNKNOWN,Visible,TRUE,TRUE,Bankhouse Surgery,One Life Hartlepool,Park Road,Hartlepool,Cleveland,,TS24 7PW,54.6823349,-1.214133978,00K,NHS Hartlepool And Stockton-On-Tees CCG,01429 274800,,www.bankhousesurgery.co.uk,01429 860811
3036,A81008,GP,UNKNOWN,Visible,TRUE,TRUE,Albert House Clinic,Normanby Road,Normanby,Middlesbrough,,,TS6 6TD,54.57125854,-1.167577505,00M,NHS South Tees CCG,01642 466 776,,,01642 464 343
3037,A81009,GP,UNKNOWN,Visible,TRUE,TRUE,Dr Waters & Partners,400-404 Linthorpe Road,,Middlesbrough,Cleveland,Cleveland,TS5 6HF,54.56230164,-1.241712809,00M,NHS South Tees CCG,0844 387 8350,,,01642 820 821
3038,A81011,GP,UNKNOWN,Visible,TRUE,TRUE,Chadwick Practice,One Life Hartlepool,Park Road,Hartlepool,Cleveland,,TS24 7PW,54.6823349,-1.214133978,00K,NHS Hartlepool And Stockton-On-Tees CCG,01429 234646,,www.chadwickpractice.co.uk,01429 861559
3039,A81012,GP,UNKNOWN,Visible,TRUE,TRUE,Westbourne Medical Centre,North Ormesby Health Village,7 Trinity Mews,North Ormesby,Middlesbrough,,TS3 6AL,54.57171631,-1.216216326,00M,NHS South Tees CCG,01642 277000,,,01642 281000
3040,A81013,GP,UNKNOWN,Visible,TRUE,TRUE,Lingdale Clinic,Lingdale Clinic,High Street,Lingdale,,,TS12 3EX,54.53971481,-0.967192709,00M,NHS South Tees CCG,01287 650406,,www.brottonsurgey.co.uk,
3041,A81013,GP,UNKNOWN,Visible,TRUE,TRUE,Brotton Surgery,East Cleveland Hospital,Alford Road,Brotton,Saltburn-By-The-Sea,,TS12 2FF,54.56526947,-0.936341345,00M,NHS South Tees CCG,01287 676215,,www.brottonsurgey.co.uk,01287 678121
3042,A81014,GP,UNKNOWN,Visible,TRUE,TRUE,Queenstree Practice,Queensway,Billingham,Cleveland,,,TS23 2LA,54.60829163,-1.294782877,00K,NHS Hartlepool And Stockton-On-Tees CCG,01642 553 389,queenstree.practice@nhs.net,,01642 365 872
3043,A81015,GP,UNKNOWN,Visible,TRUE,TRUE,Lagan Surgery,20 Kirkleatham Street,Redcar,Cleveland,,,TS10 1TZ,54.61628342,-1.073607326,00M,NHS South Tees CCG,01642 488 128,stccg.a81015@nhs.net,http://www.lagansurgery.com/,01642 759 960
3044,A81016,GP,UNKNOWN,Visible,TRUE,TRUE,Park Surgery,Park Surgery,One Life,Linthorpe Road,Middlesbrough,,TS1 3QY,54.56623459,-1.240216851,00M,NHS South Tees CCG,0300 111 2300,,http://www.parksurgery.co.uk,01642 245748
3045,A81017,GP,UNKNOWN,Visible,TRUE,TRUE,Woodbridge Practice,The Health Centre,Trenchard Avenue,Thornaby,Stockton-on-Tees,Cleveland,TS17 0EE,54.53807831,-1.292129636,00K,NHS Hartlepool And Stockton-On-Tees CCG,01642 760185,,,01642 766464
3046,A81017,GP,UNKNOWN,Visible,TRUE,TRUE,Woodbridge Practice,30 Myton Road,Ingleby Barwick,Stockton On Tees,Cleveland,,TS17 0WG,54.51800919,-1.318599105,00K,NHS Hartlepool And Stockton-On-Tees CCG,01642 352 541,,,
3047,A81018,GP,UNKNOWN,Visible,TRUE,FALSE,Bentley Medical Practice,Redcar Primary Care Hospital,West Dyke Road,Redcar,Cleveland,,TS10 4NW,54.60081482,-1.069577694,00M,NHS South Tees CCG,01642 482 647,stccg.bentleymedical@nhs.net,http://www.bentleymedicalpractice.co.uk,01642 498 885
3048,A81019,GP,UNKNOWN,Visible,TRUE,FALSE,Crossfell Health Centre,Crossfell Road,Middlesbrough,Cleveland,,,TS3 7RL,54.56096268,-1.204375863,00M,NHS South Tees CCG,01642 296777,,,06142 296851
3049,A81020,GP,UNKNOWN,Visible,TRUE,TRUE,Martonside Medical Centre,1a Martonside Way,Middlesbrough,Cleveland,,,TS4 3BU,54.55317688,-1.22031343,00M,NHS South Tees CCG,01642 812266,,,01642 811299
3050,A81021,GP,UNKNOWN,Visible,TRUE,TRUE,Dr Lone & Partners,Normanby Medical Centre,Low Grange Health Village,Normanby Road,Middlesbrough,,TS6 6TD,54.57125854,-1.167577505,00M,NHS South Tees CCG,01642 511660,,,01642 466723
3051,A81022,GP,UNKNOWN,Visible,TRUE,TRUE,Lingdale Surgery,The Clinic,The High Street,Lingdale,,,TS12 3EX,54.53971481,-0.967192709,00M,NHS South Tees CCG,01287 650406,,,
3052,A81022,GP,UNKNOWN,Visible,TRUE,TRUE,Hillside Practice,Windermere Drive,Skelton-In-Cleveland,Saltburn-By-The-Sea,Cleveland,,TS12 2TG,54.56312561,-0.98075211,00M,NHS South Tees CCG,01287 650430,,http://www.hillsidepractice.co.uk,01287 651547
3053,A81023,GP,UNKNOWN,Visible,TRUE,TRUE,Dr Foster & Partners,20 Cleveland Square,Cleveland Centre,Middlesbrough,Cleveland,,TS1 2NX,54.57537079,-1.236488938,00M,NHS South Tees CCG,01642 242 192,,,01642 231 809
3054,A81025,GP,UNKNOWN,Visible,TRUE,TRUE,The Dovecot Surgery,Health Centre,Lawson Street,Stockton On Tees,Cleveland,,TS18 1HU,54.56169128,-1.318922877,00K,NHS Hartlepool And Stockton-On-Tees CCG,01642 676520,simon.neil@nhs.net,,01642 260897
3055,A81026,GP,UNKNOWN,Visible,TRUE,TRUE,The Linthorpe Surgery,Linthorpe Surgery,378 Linthorpe Road,,Middlesbrough,,TS5 6HA,54.56334305,-1.241569757,00M,NHS South Tees CCG,01642 856066,,,01642 856061
3056,A81027,GP,UNKNOWN,Visible,TRUE,TRUE,Yarm Medical Centre,Yarm Medical Centre,Worsall Road,Yarm,Stockton-on-Tees,,TS15 9DD,54.50507736,-1.355800509,00K,NHS Hartlepool And Stockton-On-Tees CCG,01642 745800,,www.yarmmedicalpractice.nhs.uk,01642 745802
3057,A81029,GP,UNKNOWN,Visible,TRUE,TRUE,Dr Heywood & Partners,20 Cleveland Square,Cleveland Centre,Middlesbrough,Cleveland,,TS1 2NX,54.57537079,-1.236488938,00M,NHS South Tees CCG,01642 210220,,,01642 223893
3058,A81030,GP,UNKNOWN,Visible,TRUE,TRUE,Dr Lakeman & Partners,87 Guisborough Road,Nunthorpe,Middlesbrough,,,TS7 0JS,54.52864075,-1.168599129,00M,NHS South Tees CCG,01642 315 390,,,
3059,A81030,GP,UNKNOWN,Visible,TRUE,TRUE,Dr Lakeman & Partners,167a Borough Road,Middlesbrough,Cleveland,,,TS1 3RY,54.57190704,-1.226220727,00M,NHS South Tees CCG,01642 243 668,,,01642 222 252
3061,A81032,GP,UNKNOWN,Visible,TRUE,TRUE,The Garth Surgery,Rectory Lane,,,Guisborough,North Yorkshire,TS14 7DJ,54.53260803,-1.055412769,00M,NHS South Tees CCG,01287 632206,,http://www.thegarthsurgery.nhs.uk,01287 635112
3062,A81033,GP,UNKNOWN,Visible,TRUE,TRUE,Oakfield Surgery,North Ormesby Health Village,1 Trinity Mews,North Ormesby,Middlesbrough,Cleveland,TS3 6AL,54.57171631,-1.216216326,00M,NHS South Tees CCG,01642 244990,,,01642 248714
3063,A81034,GP,UNKNOWN,Visible,TRUE,TRUE,TBMG Thornaby Medical Centre,Thornaby Medical Centre,Trenchard Avenue,Thornaby,Stockton-on-Tees,Cleveland,TS17 0EE,54.53807831,-1.292129636,00K,NHS Hartlepool And Stockton-On-Tees CCG,01642 762921,,www.tbmg.nhs.uk,01642 760608
3064,A81034,GP,UNKNOWN,Visible,TRUE,TRUE,TBMG Barwick Medical Centre,Lowfields Avenue,Ingleby Barwick,Stockton-on-Tees,Cleveland,,TS17 0RJ,54.52366638,-1.307767272,00K,NHS Hartlepool And Stockton-On-Tees CCG,01642 766505,,www.tbmg.nhs.uk,01642 769516
3065,A81035,GP,UNKNOWN,Visible,TRUE,TRUE,Newlands Medical Centre,Borough Road,Middlesbrough,Cleveland,,,TS1 3RX,54.57190704,-1.226220727,00M,NHS South Tees CCG,01642 247029,http.//www.shpal.mcmail.com,,01642 223803
3066,A81036,GP,UNKNOWN,Visible,TRUE,TRUE,Norton Medical Centre,,Billingham Road,Norton,Stockton On Tees,,TS20 2UZ,54.58873749,-1.308738351,00K,NHS Hartlepool And Stockton-On-Tees CCG,01642 745350,,http://www.nortonmedicalcentre.nhs.uk,01642 745 351
3067,A81037,GP,UNKNOWN,Visible,TRUE,TRUE,The Erimus Practice,The Erimus Practice,The Cleveland Health Centre,Middlesbrough,,,TS1 2NX,54.57537079,-1.236488938,00M,NHS South Tees CCG,01642 242746,,www.erimuspractice.nhs.uk,01642 734972
3068,A81038,GP,UNKNOWN,Visible,TRUE,TRUE,Hirsel Medical Centre,North Ormesby Health Village,5 Trinity Mews,North Ormesby,Middlesbrough,,TS3 6AL,54.57171631,-1.216216326,00M,NHS South Tees CCG,01642 242880,,,01642 251494
3069,A81039,GP,UNKNOWN,Visible,TRUE,TRUE,The Eaglescliffe Medical Practice,Sunningdale Drive,Eaglescliffe,Stockton On Tees,Cleveland,,TS16 9EA,54.52006912,-1.34808743,00K,NHS Hartlepool And Stockton-On-Tees CCG,01642 780 113,,http://www.eaglescliffemedical.co.uk/,01642 791 020
3070,A81040,GP,UNKNOWN,Visible,TRUE,TRUE,Marsh House Medical Centre,Abbey Health Centre,Finchale Avenue,Billingham,Cleveland,,TS23 2DG,54.61172867,-1.292199731,00K,NHS Hartlepool And Stockton-On-Tees CCG,01642 561 282,,,01642 565 982
3071,A81041,GP,UNKNOWN,Visible,TRUE,TRUE,Hart Medical Practice,The General Medical Centre,Surgery Lane,Hartlepool,,,TS24 9DN,54.70415878,-1.223489046,00K,NHS Hartlepool And Stockton-On-Tees CCG,01429 282700,,,01429 282166
3072,A81042,GP,UNKNOWN,Visible,TRUE,TRUE,South Grange Medical Centre,Trunk Road,Eston,Middlesbrough,Cleveland,,TS6 9QG,54.57000351,-1.166566849,00M,NHS South Tees CCG,01642 467001,karen.brain@nhs.net,,01642 463334
3073,A81043,GP,UNKNOWN,Visible,TRUE,TRUE,The Manor House Surgery,The Manor House Surgery,Braidwood Road,Normanby,Middlesbrough,,TS6 0HA,54.55739594,-1.159231424,00M,NHS South Tees CCG,01642 374788,,,01642 374789
3074,A81044,GP,UNKNOWN,Visible,TRUE,TRUE,McKenzie House,Mckenzie House,17 Kendal Road,Hartlepool,Hartlepool,Cleveland,TS25 1QU,54.67339706,-1.210522771,00K,NHS Hartlepool And Stockton-On-Tees CCG,01429 230000,hlp-pct.a81044@nhs.net,http://www.mckenziegrouppractice.co.uk,01429 297713
3075,A81044,GP,UNKNOWN,Visible,TRUE,TRUE,Throston Medical Centre,82 Wiltshire Way,Hartlepool,Cleveland,,,TS26 0XT,54.69433212,-1.244109869,00K,NHS Hartlepool And Stockton-On-Tees CCG,01429 282200,,www.mckenziegrouppractice.co.uk,
3076,A81045,GP,UNKNOWN,Visible,TRUE,TRUE,The Coatham Surgery,Coatham Health Village,Coatham Road,Redcar,Cleveland,,TS10 1SR,54.61744308,-1.072419524,00M,NHS South Tees CCG,01642 483495,,http://www.coathamsurgery.co.uk/,01642 759959
3077,A81046,GP,UNKNOWN,Visible,TRUE,TRUE,Woodlands Family Medical Centre,106 Yarm Lane,Stockton On Tees,Cleveland,,,TS18 1YE,54.56139755,-1.321170092,00K,NHS Hartlepool And Stockton-On-Tees CCG,01642 607 398,woodlands.fmc@nhs.net,http://www.woodlandsmedical.co.uk,01642 604 603
3078,A81047,GP,UNKNOWN,Visible,TRUE,FALSE,Marske Medical Centre,Hall Close,Marske-By-The-Sea,Redcar,Cleveland,,TS11 6BW,54.59281921,-1.021055102,00M,NHS South Tees CCG,01642 482725,,,01642 483334
3079,A81048,GP,UNKNOWN,Visible,TRUE,FALSE,Zetland Medical Practice - Saltburn-By-The-Sea,2 Windsor Road,Saltburn-By-The-Sea,,Cleveland,,TS12 1BH,54.58247375,-0.974250436,00M,NHS South Tees CCG,01287 622393,les.boyd@nhs.net,http://www.zetlandmedicalpractice.co.uk/,01642 475150
3080,A81048,GP,UNKNOWN,Visible,TRUE,FALSE,Zetland Medical Practice - Marske-By-The-Sea,Windy Hill Lane,Marske-by-the-Sea,Redcar,Cleveland,,TS11 7BL,54.59170151,-1.016377091,00M,NHS South Tees CCG,01642 477133,les.boyd@nhs.net,http://www.zetlandmedicalpractice.co.uk/,01642 475150
3081,A81049,GP,UNKNOWN,Visible,TRUE,TRUE,Kings Road Medical Centre,North Ormesby Health Village,3 Trinity Mews,North Ormesby,Middlesbrough,Cleveland,TS3 6AL,54.57171631,-1.216216326,00M,NHS South Tees CCG,01642 244 766,,,01642 246 243
3082,A81051,GP,UNKNOWN,Visible,TRUE,TRUE,Dr Herbert & Partners,10a Cambridge Road,Linthorpe,Middlesbrough,,,TS5 5NN,54.55414963,-1.252269626,00M,NHS South Tees CCG,01642 851 177,,,01642 851 176
3083,A81052,GP,UNKNOWN,Visible,TRUE,TRUE,The Green House Surgery (Redcar Primary Care Hospital),Redcar Primary Care Hospital,West Dyke Road,,Redcar,,TS10 4NW,54.60081482,-1.069577694,00M,NHS South Tees CCG,01642 475157,rc-pct.greenhouse-surgery@nhs.net,http://www.thegreenhousesurgery.co.uk,01642 470885
3084,A81053,GP,UNKNOWN,Visible,TRUE,TRUE,Woodside Surgery,Woodside Surgery,High Street,Loftus,Saltburn-By-The-Sea,,TS13 4HW,54.5539093,-0.886771619,00M,NHS South Tees CCG,01287 640385,,,01287 644071
3086,A81054,GP,UNKNOWN,Visible,TRUE,TRUE,The Saltscar Surgery,22 Kirkleatham Street,Redcar,Cleveland,,,TS10 1UA,54.61628342,-1.073607326,00M,NHS South Tees CCG,01642 484495,,,01642 488701
3087,A81056,GP,UNKNOWN,Visible,TRUE,TRUE,Melrose Surgery,38 Melrose Avenue,,Billingham,Cleveland,,TS23 2JW,54.60939789,-1.287285686,00K,NHS Hartlepool And Stockton-On-Tees CCG,01642 553 055,,,01642 365 906
3088,A81057,GP,UNKNOWN,Visible,TRUE,TRUE,Kingsway Medical Centre,Kingsway,Billingham,Cleveland,,,TS23 2LS,54.60646057,-1.288745761,00K,NHS Hartlepool And Stockton-On-Tees CCG,01642 554 967,,http://www.surgeriesonline.com/kingswaymc,01642 533 011
3089,A81058,GP,UNKNOWN,Visible,TRUE,TRUE,Coulby Medical Practice,Cropton Way,Coulby Newham,Middlesbrough,Cleveland,,TS8 0TL,54.52480698,-1.213746548,00M,NHS South Tees CCG,01642 746800,,,01642 746802
3090,A81060,GP,UNKNOWN,Visible,TRUE,TRUE,Dr Koh & Partner,Health Centre,Victoria Road,Hartlepool,Cleveland,,TS26 8DB,54.68514252,-1.217600822,00K,NHS Hartlepool And Stockton-On-Tees CCG,01429 273191,,,01429 864006
3091,A81063,GP,UNKNOWN,Visible,TRUE,TRUE,The Headland Medical Centre,2 Groves Street,Hartlepool,Cleveland,,,TS24 0NZ,54.69664383,-1.183089495,00K,NHS Hartlepool And Stockton-On-Tees CCG,01429 222170,,,01429 222140
3092,A81064,GP,UNKNOWN,Visible,TRUE,TRUE,Dr McIlhinney & Partners,20 Cleveland Square,Cleveland Centre,Middlesbrough,Cleveland,,TS1 2NX,54.57537079,-1.236488938,00M,NHS South Tees CCG,01642 245 069,,,01642 230 388
3093,A81065,GP,UNKNOWN,Visible,TRUE,TRUE,The Eston Surgery - Low Grange Health Village,Low Grange Health Village,Normanby Road,Middlesbrough,Cleveland,Cleveland,TS6 6TD,54.57112122,-1.167343974,00M,NHS South Tees CCG,01642 511567,stccg.estonsurgery@nhs.net,http://www.estonsurgery.co.uk/,01642 511667
3094,A81066,GP,UNKNOWN,Visible,TRUE,FALSE,Park Lane Surgery,Redmarshall Street,Stillington,Stockton On Tees,Cleveland,,TS21 1JS,54.60461426,-1.42511642,00K,NHS Hartlepool And Stockton-On-Tees CCG,01740 631001,clinicalpost.a81066@nhs.net (repeat prescriptions),,01740 631201
3095,A81067,GP,UNKNOWN,Visible,TRUE,FALSE,Alma Street Medical Centre,Nolan Place,Stockton-on-Tees,Cleveland,,,TS18 2BP,54.56959152,-1.317631245,00K,NHS Hartlepool And Stockton-On-Tees CCG,01642 607248,,,01642 612968
3096,A81031,GP,UNKNOWN,Visible,TRUE,TRUE,BRIERTON MEDICAL CENTRE HARTLEPOOL,Earlsferry Road,Hartlepool,Cleveland,,,TS25 4AZ,54.66598892,-1.244155407,00K,NHS Hartlepool And Stockton-On-Tees CCG,01429 272000,,www.havelockgrangepractice.co.uk,01429 277757
3097,A81031,GP,UNKNOWN,Visible,TRUE,TRUE,HAVELOCK GRANGE PRACTICE,One Life Hartlepool,Park Road,Hartlepool,Cleveland,,TS24 7PW,54.6823349,-1.214133978,00K,NHS Hartlepool And Stockton-On-Tees CCG,01429 272000,,www.havelockgrangepractice.co.uk,01429 861265
3099,A81069,GP,UNKNOWN,Visible,TRUE,FALSE,Rainbow Surgery,Redcar Primary Care Hospital,West Dyke Road,Redcar,Cleveland,,TS10 4NW,54.60081482,-1.069577694,00M,NHS South Tees CCG,01642 475222,,,
3100,A81070,GP,UNKNOWN,Visible,TRUE,TRUE,Wynyard Road Primary Care Centre,Wynyard Road,,Hartlepool,,,TS25 3DQ,54.66075516,-1.236423969,00K,NHS Hartlepool And Stockton-On-Tees CCG,01429 223 195,,,01429 296 007
3101,A81602,GP,UNKNOWN,Visible,TRUE,TRUE,Dr Rasool,Queensway,Billingham,Cleveland,,,TS23 2LA,54.60829163,-1.294782877,00K,NHS Hartlepool And Stockton-On-Tees CCG,01642 360033,,,01642 552892
3102,A81605,GP,UNKNOWN,Visible,TRUE,FALSE,Park Avenue Surgery,,13 Park Avenue,,Redcar,Cleveland,TS10 3LA,54.61478806,-1.055554867,00M,NHS South Tees CCG,01642 482647,surgery.parkavenue@nhs.net,http://www.parkavenuesurgery.co.uk,01642 480163
3103,A81608,GP,UNKNOWN,Visible,TRUE,TRUE,Elm Tree Surgery,51 Westbury Street,Thornaby,Stockton On Tees,Cleveland,,TS17 6NP,54.55463028,-1.298986554,00K,NHS Hartlepool And Stockton-On-Tees CCG,01642 616 663,,,
3105,A81609,GP,UNKNOWN,Visible,TRUE,TRUE,A&B Medical Practice,,Endurance House,Clarence Street,Stockton On Tees,,TS18 2EP,54.57213211,-1.312607884,00K,NHS Hartlepool And Stockton-On-Tees CCG,01642 676 906,,,01642 616 324
3107,A81610,GP,UNKNOWN,Visible,TRUE,TRUE,The Roseberry Practice,Abbey Health Centre,Finchale Avenue,Billingham,Cleveland,,TS23 2DG,54.61172867,-1.292199731,00K,NHS Hartlepool And Stockton-On-Tees CCG,01642 552 700,,,01642 532 908
3108,A81611,GP,UNKNOWN,Visible,TRUE,TRUE,Parkway Medical Centre,Cropton Way,Coulby Newham,Middlesbrough,Cleveland,,TS8 0TL,54.52480698,-1.213746548,00M,NHS South Tees CCG,01642 270033,contactus@parkwaymedicalcentre.com,www.parkwaymedicalcentre.com,01642 270055
3109,A81612,GP,UNKNOWN,Visible,TRUE,TRUE,Seaton Surgery,Station Lane,Seaton Carew,Hartlepool,Hartlepool,,TS25 1AX,54.66139603,-1.188648939,00K,NHS Hartlepool And Stockton-On-Tees CCG,01429 278827,,,01429 864513
3110,A81613,GP,UNKNOWN,Visible,TRUE,TRUE,Journee Medical Practice,Health Centre,Victoria Road,Hartlepool,Cleveland,,TS26 8DB,54.68514252,-1.217600822,00K,NHS Hartlepool And Stockton-On-Tees CCG,01429 262095,,,01429 272374
3111,A81618,GP,UNKNOWN,Visible,TRUE,TRUE,Dr Milner & Partners,Bath Street,Saltburn-By-The-Sea,Cleveland,,,TS12 1BJ,54.58271027,-0.974693179,00M,NHS South Tees CCG,01287 622207,,,01287 623803
3113,A81621,GP,UNKNOWN,Visible,TRUE,FALSE,Thorntree Surgery,Thorntree Surgery,11 Beresford Buildings,Middlesbrough,Cleveland,,TS3 9NB,54.56520844,-1.183445096,00M,NHS South Tees CCG,0300 111 2300,,,01642 248261
3114,A81622,GP,UNKNOWN,Visible,TRUE,TRUE,Gladstone House Surgery,46 Victoria Road,Hartlepool,Cleveland,,,TS26 8DD,54.68561172,-1.218150258,00K,NHS Hartlepool And Stockton-On-Tees CCG,01429 297290,,,01429 285132
3117,A81629,GP,UNKNOWN,Visible,TRUE,TRUE,Riverside Medical Practice,Riverside Medical Practice,Alma Street,,Stockton-on-Tees,Cleveland,TS18 2AP,54.56895447,-1.316172481,00K,NHS Hartlepool And Stockton-On-Tees CCG,01642 604117,,,01642 604602
3118,A81630,GP,UNKNOWN,Visible,TRUE,FALSE,Fulcrum Medical Practice,Acklam Road,Acklam,,Middlesbrough,Cleveland,TS5 4EQ,54.56344223,-1.257883668,00M,NHS South Tees CCG,01642 354550,,,01642 873575
3120,A81631,GP,UNKNOWN,Visible,TRUE,TRUE,West View Millennium Surgery,West View Road,,Hartlepool,,,TS24 9LJ,54.70988846,-1.222727776,00K,NHS Hartlepool And Stockton-On-Tees CCG,01429 890400,,,01429 866444
3121,A81632,GP,UNKNOWN,Visible,TRUE,FALSE,The Birchtree Surgery,Health Centre,Lawson Street,Stockton On Tees,Cleveland,,TS18 1HU,54.56169128,-1.318922877,00K,NHS Hartlepool And Stockton-On-Tees CCG,01642 633 561,,,01642 625 475
3122,A81633,GP,UNKNOWN,Visible,TRUE,FALSE,Dr Sykes,7 Harris Street,Middlesbrough,Cleveland,,,TS1 5EF,54.57545471,-1.242489696,00M,NHS South Tees CCG,01642 251 053,,,01642 246 005
3123,A81634,GP,UNKNOWN,Visible,TRUE,TRUE,The Arrival Practice,Endurance House,Clarence Street,Stockton-on-Tees,Cleveland,,TS18 2EP,54.57213211,-1.312607884,00K,NHS Hartlepool And Stockton-On-Tees CCG,01642 615 415,,,01642 616 324
3124,A82003,GP,UNKNOWN,Visible,TRUE,TRUE,Dr G R Murray & Partners,Ulverston Community Health Centre,Stanley Street,Ulverston,Cumbria,,LA12 7BT,54.1988945,-3.097956181,01H,NHS Cumbria CCG,01229 484141 ,,,01229 484159
3125,A82004,GP,UNKNOWN,Visible,TRUE,FALSE,Alston Medical Practice,Overwater,,Nenthead,Cumbria,,CA9 3NT,54.78688431,-2.344151258,01H,NHS Cumbria CCG,01434 381214,kathleen.walton@gp-a82004.nhs.uk,,
3126,A82004,GP,UNKNOWN,Visible,TRUE,FALSE,Alston Medical Practice,The Surgery,Cottage Hospital,Alston,Cumbria,,CA9 3QX,54.81021118,-2.439819574,01H,NHS Cumbria CCG,01434 381214,kathleen.walton@gp-a82004.nhs.uk,,01434 382210
3127,A82005,GP,UNKNOWN,Visible,TRUE,TRUE,Ambleside Health Centre - Grasmere Branch Surgery,1 Field Foot,Grasmere,Ambleside,Grasmere,,LA22 9TB,54.45967102,-3.023536444,01H,NHS Cumbria CCG,,,,
3128,A82005,GP,UNKNOWN,Visible,TRUE,TRUE,Ambleside Health Centre,Rydal Road,Ambleside,Cumbria,,,LA22 9BP,54.43504715,-2.966326237,01H,NHS Cumbria CCG,015394 32693,,,015394 32520
3129,A82006,GP,UNKNOWN,Visible,TRUE,TRUE,Appleby Medical Practice,The Riverside Building,Chapel Street,Cumbria,Appleby in Westmorland,Cumbria,CA16 6QR,54.57932663,-2.494239807,01H,NHS Cumbria CCG,017683 51584,debbie.hewitt@gp-a82006.nhs.uk,http://www.applebymedicalpractice.co.uk/,017683 53375
3130,A82007,GP,UNKNOWN,Visible,TRUE,TRUE,Duke Street Surgery,4 Duke Street,,Barrow In Furness,Cumbria,,LA14 1LF,54.11120987,-3.22615099,01H,NHS Cumbria CCG,01229 820068,,,01229 813840
3131,A82008,GP,UNKNOWN,Visible,TRUE,TRUE,Dr SH Rogerson & Partners,99 Abbey Road,,,Barrow in Furness,Cumbria,LA14 5ES,54.11920547,-3.222959757,01H,NHS Cumbria CCG,01229 402525,,,01229 402544
3132,A82009,GP,UNKNOWN,Visible,TRUE,TRUE,Bridgegate Medical Centre,Bridgegate Medical Centre,Winchester Street,,Barrow-in-Furness,,LA13 9SH,54.11433411,-3.208680868,01H,NHS Cumbria CCG,01229 820304,diane.clark@gp-a82009.nhs.uk,http://www.bridgegatemedicalcentre.nhs.uk,01229 836984
3133,A82010,GP,UNKNOWN,Visible,TRUE,TRUE,Dr Nugent JJ & Partners,Abbey Road Surgery,243 Abbey Road,,Barrow in Furness,,LA14 5JY,54.1242981,-3.216676712,01H,NHS Cumbria CCG,01229 821599,,http://www.abbey-practice.co.uk,01229 842429
3134,A82011,GP,UNKNOWN,Visible,TRUE,TRUE,Hartington Street Medical Practice,36-38 Hartington Street,,Barrow In Furness,Cumbria,,LA14 5SL,54.11672592,-3.22920537,01H,NHS Cumbria CCG,01229 820554,a82011.reception@gp-a82011.nhs.uk,,01229 813718
3135,A82012,GP,UNKNOWN,Visible,TRUE,FALSE,Wetheral Surgery,Yew Tree Cottage,,Wetheral ,Cumbria,,CA4 8JD,54.88285446,-2.834280729,01H,NHS Cumbria CCG,016977 2551,website@gp-a82012.nhs.uk,www.bramptonmedicalpractice.com,1697741944
3136,A82012,GP,UNKNOWN,Visible,TRUE,FALSE,Corby Hill Surgery part of Brampton Medical Practice,Beech House,Corby Hill,Carlisle,Cumbria,,CA4 8PL,54.90521622,-2.814140797,01H,NHS Cumbria CCG,016977 2551,website@gp-a82012.nhs.uk,www.bramptonmedicalpractice.com,016977 41944
3137,A82012,GP,UNKNOWN,Visible,TRUE,FALSE,Brampton Medical Practice,4 Market Place,Brampton,Cumbria,,,CA8 1NL,54.94236755,-2.734826088,01H,NHS Cumbria CCG,016977 2551,website@gp-a82012.nhs.uk,www.bramptonmedicalpractice.com,016977 41944
3138,A82013,GP,UNKNOWN,Visible,TRUE,FALSE,The Upper Eden Medical Practice,Main Street,Brough,Kirkby Stephen,Cumbria,,CA17 4AY,54.52783203,-2.321648598,01H,NHS Cumbria CCG,017683 41294,,,017683 41068
3139,A82013,GP,UNKNOWN,Visible,TRUE,FALSE,The Upper Eden Medical Practice,Off Church Street,,Tebay,Cumbria,,CA10 3XB,54.43233871,-2.592336178,01H,NHS Cumbria CCG,015396 24591,,,017683 72385
3140,A82013,GP,UNKNOWN,Visible,TRUE,FALSE,The Upper Eden Medical Practice,Silver Street,Kirkby Stephen,Cumbria,,,CA17 4RB,54.47473907,-2.349903107,01H,NHS Cumbria CCG,017683 71369,,,017683 72385
3141,A82014,GP,UNKNOWN,Visible,TRUE,TRUE,Caldbeck Surgery,Friar Row,Caldbeck,Wigton,Cumbria,,CA7 8DS,54.74987793,-3.050654173,01H,NHS Cumbria CCG,016974 78254,,,016974 78661
3142,A82015,GP,UNKNOWN,Visible,TRUE,TRUE,Warwick Road Surgery,65 Warwick Road,Carlisle,Cumbria,,,CA1 1EB,54.89383698,-2.928494692,01H,NHS Cumbria CCG,01228 536303,claire.carswell@gp-a82015.nhs.uk,,01228 593606
3143,A82016,GP,UNKNOWN,Visible,TRUE,TRUE,St Paul's Medical Centre,Spencer House,St Paul's Square,Carlisle,Cumbria,,CA1 1DG,54.89365768,-2.930673361,01H,NHS Cumbria CCG,01228 524354,admin@spmc.co.uk,http://www.spmc.co.uk/,01228 616660
3144,A82016,GP,UNKNOWN,Visible,TRUE,TRUE,St Paul's Medical Centre,St. Pauls Square,Carlisle,Cumbria,,,CA1 1DG,54.89365768,-2.930673361,01H,NHS Cumbria CCG,01228 524354,admin@spmc.co.uk,,01228 616660
3145,A82017,GP,UNKNOWN,Visible,TRUE,TRUE,Brunswick House Medical Group,1 Brunswick Street,,,CARLISLE,,CA1 1ED,54.89323044,-2.929260254,01H,NHS Cumbria CCG,01228 515808,,http://bhmg.co.uk/,01228 593048
3146,A82017,GP,UNKNOWN,Visible,TRUE,TRUE,Brunswick House Medical Group,Branch Surgery,1 Eastern Way,Harraby,CARLISLE,,CA1 3QZ,54.87930679,-2.909238815,01H,NHS Cumbria CCG,01228 515808,,http://bhmg.co.uk/,01228 596429
3147,A82018,GP,UNKNOWN,Visible,TRUE,TRUE,Spencer Street Surgery,10 Spencer Street,Carlisle,Cumbria,,,CA1 1BP,54.89489365,-2.931107283,01H,NHS Cumbria CCG,01228 529171,reception@gp-a82018.nhs.uk,www.spencerstreetsurgery.co.uk,
3148,A82018,GP,UNKNOWN,Visible,TRUE,TRUE,Blackwell Road Branch Surgery,42 Blackwell Road,,Carlisle,Carlisle,,CA2 4EQ,54.88179016,-2.928903341,01H,NHS Cumbria CCG,,,,
3149,A82019,GP,UNKNOWN,Visible,TRUE,TRUE,Fusehill Medical Practice,Fusehill Medical Centre,Fusehill Street,,Carlisle,Cumbria,CA1 2HE,54.89066315,-2.922918081,01H,NHS Cumbria CCG,01228 527559,,,01228 594434
3150,A82019,GP,UNKNOWN,Visible,TRUE,TRUE,Fusehill Medical Practice,15 Scotland Road,Carlisle,Cumbria,,,CA3 9HR,54.90416718,-2.937356949,01H,NHS Cumbria CCG,01228 533872,,,
3151,A82020,GP,UNKNOWN,Visible,TRUE,TRUE,Eden Medical Group,Port Road,Carlisle,Cumbria,,,CA2 7AJ,54.894207,-2.952436686,01H,NHS Cumbria CCG,01228 524477,,,01228 553809
3152,A82021,GP,UNKNOWN,Visible,TRUE,TRUE,Castlegate Surgery,Cockermouth Health Centre,Isel Road,,Cockermouth,Cumbria,CA13 9HT,54.66684723,-3.358566284,01H,NHS Cumbria CCG,01900 705750,sid.williamson@ncumbria.nhs.uk,http://www.castlegatesurgery.nhs.uk/,01900 705395
3153,A82022,GP,UNKNOWN,Visible,TRUE,FALSE,Dalston Medical Group,Townhead Road,Dalston,Carlisle,Cumbria,,CA5 7PZ,54.84138107,-2.985542774,01H,NHS Cumbria CCG,01228 710451,,http://www.dalstonmedicalgroup.org.uk,01228 711898
3154,A82023,GP,UNKNOWN,Visible,TRUE,FALSE,Hinnings Road Surgery,Hinnings Road,Distington,Workington,Cumbria,,CA14 5UR,54.59530258,-3.541336298,01H,NHS Cumbria CCG,01946 830207,,,01946 833793
3155,A82024,GP,UNKNOWN,Visible,TRUE,FALSE,Seascale Health Centre,Gosforth Road,Seascale,Cumbria,,,CA20 1PN,54.39674377,-3.47998333,01H,NHS Cumbria CCG,019467 28101,,,019467 27895
3156,A82024,GP,UNKNOWN,Visible,TRUE,FALSE,Bootle Branch Surgery,Chapel Lane,Bootle,Millom,Cumbria,,LA19 5UE,54.28150558,-3.374515057,01H,NHS Cumbria CCG,01229 718711,,,
3157,A82025,GP,UNKNOWN,Visible,TRUE,TRUE,Captain French Surgery,The Gillingate Centre,Gillinggate Centre,Gillinggate,Kendal,Cumbria,LA9 4JE,54.32344437,-2.748547554,01H,NHS Cumbria CCG,01539 720241,,,01539 725048
3158,A82026,GP,UNKNOWN,Visible,TRUE,FALSE,The James Cochrance Practice H/C,Helme Chase Surgery,Burton Road,Kendal,Cumbria,,LA9 7HR,54.31262207,-2.737145662,01H,NHS Cumbria CCG,01539 718080,,http://www.jamescochranepractice.co.uk,01539 718077
3159,A82026,GP,UNKNOWN,Visible,TRUE,FALSE,The James Cochrane Practice M/S,Maude Street Surgery,Maude Street,Kendal,Cumbria,,LA9 4QE,54.33026886,-2.747948885,01H,NHS Cumbria CCG,01539 718080,,http://www.jamescochranepractice.co.uk,01539 718078
3160,A82027,GP,UNKNOWN,Visible,TRUE,FALSE,Station House Surgery,Station Road,Station Road,Kendal,Kendal,,LA9 6SA,54.33196259,-2.739721537,01H,NHS Cumbria CCG,01539 722660,,,01539 777293
3161,A82028,GP,UNKNOWN,Visible,TRUE,TRUE,Castlehead Medical Centre,Ambleside Road,Keswick,Cumbria,,,CA12 4DB,54.59770584,-3.134557724,01H,NHS Cumbria CCG,017687 72025,,http://www.castlehead.org.uk,017687 73862
3162,A82029,GP,UNKNOWN,Visible,TRUE,TRUE,The Croft Surgery,Kirkbride,,Wigton,Cumbria,,CA7 5JH,54.89714432,-3.202825308,01H,NHS Cumbria CCG,016973 51207,,,016973 52063
3163,A82030,GP,UNKNOWN,Visible,TRUE,FALSE,Dr P J I Hall & Partners,West View Surgery,Lancaster Road,Hornby,Lancaster,,LA2 8JS,54.10800552,-2.637028217,01H,NHS Cumbria CCG,015242 21216,,,
3164,A82030,GP,UNKNOWN,Visible,TRUE,FALSE,Dr P J I Hall & Partners,Lunsdale Surgery,,Kirkby Lonsdale,Cumbria,,LA6 2HQ,54.20060349,-2.602244616,01H,NHS Cumbria CCG,015242 71210,,,015242 727133
3168,A82032,GP,UNKNOWN,Visible,TRUE,TRUE,Maryport Group practice,Alneburgh House,Ewanrigg Road,Maryport,Cumbria,,CA15 8EL,54.70643616,-3.494516373,01H,NHS Cumbria CCG,01900 815544,,,01900 816626
3169,A82033,GP,UNKNOWN,Visible,TRUE,TRUE,Waterloo House Surgery,Waterloo House Surgery,40/44 Wellington Street,Millom,Cumbria,,LA18 4DE,54.20932007,-3.266453743,01H,NHS Cumbria CCG,01229 772123,,,01229 771300
3170,A82034,GP,UNKNOWN,Visible,TRUE,FALSE,Dr J H Gorrigan & Partners,Memorial Hall,Main Street,Burton In Kendal,Cumbria,,LA6 1NA,54.18241882,-2.721036673,01H,NHS Cumbria CCG,,,,
3171,A82034,GP,UNKNOWN,Visible,TRUE,FALSE,Dr J H Gorrigan & Partners,The Institute,Levens,Cumbria,,,LA8 8PU,54.26629257,-2.78810668,01H,NHS Cumbria CCG,,,,
3172,A82034,GP,UNKNOWN,Visible,TRUE,FALSE,Dr J H Gorrigan & Partners,Police Square,,Milnthorpe,Cumbria,,LA7 7PW,54.22727966,-2.770689487,01H,NHS Cumbria CCG,015395 63307,,,015395 62005
3173,A82035,GP,UNKNOWN,Visible,TRUE,TRUE,Birbeck Medical Group,Penrith Health Centre,Bridge Lane,Penrith,Cumbria,,CA11 8HW,54.65616608,-2.743849039,01H,NHS Cumbria CCG,01768 214620,,,01768 214622
3174,A82036,GP,UNKNOWN,Visible,TRUE,TRUE,The Lakes Medical Practice,Penrith Health Centre,Bridge Lane,,Penrith,Cumbria,CA11 8HW,54.65616608,-2.743849039,01H,NHS Cumbria CCG,01768 214345,thelakes@gp-a82036.nhs.uk,http://www.thelakesmedicalpractice.co.uk,01768 214346
3175,A82037,GP,UNKNOWN,Visible,TRUE,TRUE,Silloth Group Medical Practice,Lawn Terrace,Silloth,Wigton,Cumbria,,CA7 4AH,54.86973572,-3.393525839,01H,NHS Cumbria CCG,016973 31309,,http://www.sillothgroupmedicalpractice.nhs.uk,016973 32834
3176,A82038,GP,UNKNOWN,Visible,TRUE,TRUE,Temple Sowerby Medical Practice,Linden Park,Temple Sowerby,Penrith,Cumbria,,CA10 1RW,54.6374321,-2.60479641,01H,NHS Cumbria CCG,017683 61232,tssurgery@gp-a82038.nhs.uk,,017683 61980
3177,A82039,GP,UNKNOWN,Visible,TRUE,TRUE,Market Street Medical Practice,Market Street Medical Practice,92 Market Street,,Dalton-in-Furness,,LA15 8AB,54.15592194,-3.179801464,01H,NHS Cumbria CCG,01229 462591,,,01229 468217
3178,A82040,GP,UNKNOWN,Visible,TRUE,FALSE,Catherine Street Surgery,3 Catherine Street,,Whitehaven,Cumbria,,CA28 7PD,54.54686737,-3.584993839,01H,NHS Cumbria CCG,01946 693094,,,01946 592597
3179,A82041,GP,UNKNOWN,Visible,TRUE,FALSE,Lowther Medical Centre,1 Castle Meadows,Whitehaven,Cumbria,,,CA28 7RG,54.54507065,-3.586346388,01H,NHS Cumbria CCG,01946 692241,,,01946 590617
3180,A82044,GP,UNKNOWN,Visible,TRUE,TRUE,Fellview Healthcare Ltd,Flatt Walks Surgery,3 Castle Meadows,,Whitehaven,Cumbria,CA28 7QE,54.54471588,-3.586580038,01H,NHS Cumbria CCG,01946 692173,,http://www.fellviewhealthcare.nhs.uk,01946 590606
3181,A82045,GP,UNKNOWN,Visible,TRUE,TRUE,Wigton Group Medical Practice,South End,Wigton,Cumbria,,,CA7 9QD,54.8203125,-3.158969164,01H,NHS Cumbria CCG,016973 42254,lin.baillie@gp-a82045.nhs.uk,http://www.wigtonmedicalpractice.co.uk,016973 45464
3182,A82046,GP,UNKNOWN,Visible,TRUE,TRUE,Windermere Health Centre,Windermere,Goodly Dale,Bowness-on-Windermere,Windermere,Cumbria,LA23 2EG,54.37083054,-2.913358688,01H,NHS Cumbria CCG,015394 45159,,http://www.windermerehealthcentre.co.uk/,015394 46029
3183,A82047,GP,UNKNOWN,Visible,TRUE,TRUE,James Street Group Practice,James Street,Workington,Cumbria,,,CA14 2DL,54.64464569,-3.550332069,01H,NHS Cumbria CCG,01900 62241,,,01900 603385
3184,A82048,GP,UNKNOWN,Visible,TRUE,TRUE,Beechwood Group Practice,57 John Street,Workington,Cumbria,,,CA14 3FT,54.64237213,-3.545565367,01H,NHS Cumbria CCG,01900 64866,,,01900 871561
3185,A82049,GP,UNKNOWN,Visible,TRUE,TRUE,Orchard House Surgery,Ann Burrow Thomas Health Centre,South William Street,,Workington,,CA14 2EW,54.64536285,-3.549925327,01H,NHS Cumbria CCG,01900 603985,,,01900 871761
3186,A82050,GP,UNKNOWN,Visible,TRUE,TRUE,Oxford Street Surgery,,20 Oxford Street,,Workington,Cumbria,CA14 2AJ,54.64369202,-3.550466299,01H,NHS Cumbria CCG,01900 603302,sharon.wilson@gp-a82050.nhs.uk,,01900 871604
3187,A82052,GP,UNKNOWN,Visible,TRUE,FALSE,North Carlisle Medical Practice,,North Carlisle Medical Practice,Eden Street,Carlisle,Cumbria,CA3 9JZ,54.91048431,-2.942267418,01H,NHS Cumbria CCG,01228 525768,,http://www.stanwixmedicalpractice.nhs.uk,01228 592965
3188,A82053,GP,UNKNOWN,Visible,TRUE,TRUE,Drs Irwin Reeve & Golding,The Health Centre,Kents Bank Road,,Grange over Sands,Cumbria,LA11 7DJ,54.18793488,-2.915634871,01H,NHS Cumbria CCG,01539 715500,,,01539 777200
3189,A82055,GP,UNKNOWN,Visible,TRUE,TRUE,Aspatria Medical Group,West Street Health Centre,West Street,Aspatria,Wigton,Cumbria,CA7 3HH,54.76213837,-3.338055372,01H,NHS Cumbria CCG,016973 20209,,,016973 22333
3190,A82057,GP,UNKNOWN,Visible,TRUE,FALSE,Derwent Surgery,Cockermouth Community Hospital and Health Centre,Isel Road,Cockermouth,Cumbria,,CA13 9HT,54.66684723,-3.358566284,01H,NHS Cumbria CCG,01900 705350,,http://www.derwentsurgery.co.uk/,01900 705390
3191,A82058,GP,UNKNOWN,Visible,TRUE,FALSE,Queen Street Medical Practice,Richard Benedict House,149 Queen Street,Whitehaven,Cumbria,,CA28 7BA,54.54657364,-3.589048386,01H,NHS Cumbria CCG,01946 694457,reception@gp-a82058.nhs.uk,,01946 590613
3192,A82060,GP,UNKNOWN,Visible,TRUE,TRUE,Whitehaven  Medical Centre,Catherine Street,Whitehaven,Cumbria,Whitehaven,,CA28 7PA,54.54590607,-3.586017609,01H,NHS Cumbria CCG,01946 693412,,,
3193,A82062,GP,UNKNOWN,Visible,TRUE,TRUE,Atkinson Health Centre,Market Street,,Barrow In Furness,Barrow-in-Furness,,LA14 2LR,54.10999298,-3.228302479,01H,NHS Cumbria CCG,01229 822205,prescriptions.wiejak@gp-a82062.nhs.uk,http://www.atkinsonhealthcentrepractice.nhs.uk,01229 845976
3194,A82063,GP,UNKNOWN,Visible,TRUE,TRUE,Bank Street Surgery,Bank Street Surgery,9 Bank Street,Keswick,Cumbria,,CA12 5JY,54.60207367,-3.138100386,01H,NHS Cumbria CCG,017687 72438,,,017687 72454
3195,A82064,GP,UNKNOWN,Visible,TRUE,FALSE,Westcroft House,66 Main Street,,Egremont,Cumbria,,CA22 2DB,54.48308563,-3.528668165,01H,NHS Cumbria CCG,01946 820348,,http://westcrofthouse.co.uk,01946 821611
3196,A82065,GP,UNKNOWN,Visible,TRUE,TRUE,Rose Grove Surgery,Fairfield Surgery,Flookburgh,Grange Over Sands,Cumbria,,LA11 7JY,54.1751976,-2.973049402,01H,NHS Cumbria CCG,015395 58307,,,015395 58442
3197,A82065,GP,UNKNOWN,Visible,TRUE,TRUE,Rose Grove Surgery,Albert Road,Grange-Over-Sands,Cumbria,Grange-Over-Sands,,LA11 7EZ,54.19218445,-2.910946846,01H,NHS Cumbria CCG,015395 33018,,,
3198,A82068,GP,UNKNOWN,Visible,TRUE,TRUE,Dr Hambly and Partners,Ulverston Community Health Centre,Stanley Street,,Ulverston,Cumbria,LA12 7BT,54.1988945,-3.097956181,01H,NHS Cumbria CCG,01229 484100,,,01229 484101
3199,A82070,GP,UNKNOWN,Visible,TRUE,FALSE,Dr P Burns & Partners,St Mary's Surgery,Applethwaite,Windermere,Cumbria,,LA23 1BA,54.38077164,-2.908821821,01H,NHS Cumbria CCG,015394 88484,,,01539 442838
3200,A82070,GP,UNKNOWN,Visible,TRUE,FALSE,Dr P Burns & Partners,Staveley Surgery,9 Crook Road,Staveley,Kendal,,LA8 9NG,54.3724823,-2.818632841,01H,NHS Cumbria CCG,01539 821341,,,
3201,A82071,GP,UNKNOWN,Visible,TRUE,TRUE,Burnett Edgar Medical Centre,Central Drive,Walney,Barrow-In-Furness,Cumbria,,LA14 3HY,54.10715866,-3.254894018,01H,NHS Cumbria CCG,01229 474526,,,01229 475282
3202,A82072,GP,UNKNOWN,Visible,TRUE,TRUE,Dr Jolliffe GC & Partner,2-4 Gloucester Street,Barrow-In-Furness,Cumbria,,,LA13 9RX,54.11179352,-3.207796097,01H,NHS Cumbria CCG,01229 822332,,,01229 433636
3203,A82074,GP,UNKNOWN,Visible,TRUE,TRUE,Dr D Kew ,Arnside Medical Practice,Orchard Road,Arnside,Carnforth,,LA5 0DP,54.20029068,-2.832899094,01H,NHS Cumbria CCG,01524 761311,arnside@gp-a82074.nhs.uk,http://www.arnsidemedicalpractice.co.uk/,01524 762470
3204,A82074,GP,UNKNOWN,Visible,TRUE,TRUE,Dr D Kew ,20a Emesgate Lane,Silverdale,Carnforth,Lancs,,LA5 0RA,54.16846085,-2.826990128,01H,NHS Cumbria CCG,01524 701744,,,
3208,A82608,GP,UNKNOWN,Visible,TRUE,FALSE,Sedbergh Medical Centre - Branch Surgery,Methodist Church Hall,Dent,Sedbergh,Dent,,LA10 5QJ,54.27851868,-2.456434488,01H,NHS Cumbria CCG,,,,
3209,A82608,GP,UNKNOWN,Visible,TRUE,FALSE,Sedbergh Medical Centre,Station Road,Station Road,Sedbergh,Sedbergh,,LA10 5DL,54.32236862,-2.535283327,01H,NHS Cumbria CCG,01539 718191,,http://www.sedberghmp.nhs.uk/,015396 20586
3210,A82613,GP,UNKNOWN,Visible,TRUE,FALSE,Coniston Medical Practice,Wraysdale House,,Coniston,Cumbria,,LA21 8ER,54.36725235,-3.076061964,01H,NHS Cumbria CCG,015394 41205,,,015394 41205
3212,A82617,GP,UNKNOWN,Visible,TRUE,FALSE,Kirkoswald Surgery,Kirkoswald Surgery,Ravenghyll,Kirkoswald,Penrith,Cumbria,CA10 1DQ,54.7637825,-2.692561388,01H,NHS Cumbria CCG,01768 898560,,,01768 898905
3213,A82619,GP,UNKNOWN,Visible,TRUE,TRUE,Nelson Street Surgery,18 Nelson Street,,Dalton In Furness,Dalton in Furness,,LA15 8AF,54.15720749,-3.181736946,01H,NHS Cumbria CCG,01229 463999,,,01229 466900
3214,A82620,GP,UNKNOWN,Visible,TRUE,FALSE,Glenridding Health Centre,Glenridding,,,Penrith,Cumbria,CA11 0PD,54.54404449,-2.950768471,01H,NHS Cumbria CCG,017684 82297,reception@gp-a82620.nhs.uk,http://www.glenriddinghealthcentre.co.uk,017684 82145
3215,A82621,GP,UNKNOWN,Visible,TRUE,FALSE,Dr P R Jain,The Surgery,2 Parklands Drive,Askam In Furness,Askam in Furness,,LA16 7JP,54.18371964,-3.210918665,01H,NHS Cumbria CCG,01229 462464,,,0709 235 6823
3217,A82623,GP,UNKNOWN,Visible,TRUE,TRUE,Solway Health Services,Park Lane,Workington,Cumbria,,,CA14 2RW,54.6427536,-3.551453352,01H,NHS Cumbria CCG,01900 705150,,,01900 605856
3218,A82625,GP,UNKNOWN,Visible,TRUE,FALSE,Haverthwaite Surgery,Backbarrow,,Ulverston,Cumbria,,LA12 8QF,54.25147247,-2.993615866,01H,NHS Cumbria CCG,015395 31619,,,015395 31495
3220,A82625,GP,UNKNOWN,Visible,TRUE,FALSE,The Surgery - Haverthwaite Surgery Branch,Greenodd Village Hall,,,Greenodd,,LA12 7QZ,54.23379135,-3.054129601,01H,NHS Cumbria CCG,1539531619,,,01539 531495
3221,A82629,GP,UNKNOWN,Visible,TRUE,TRUE,Dr R Karamchandani & Partner,The Family Practice,26 - 30 Hartington Street,,Barrow-in-Furness,Cumbria,LA14 5SL,54.1167717,-3.228747845,01H,NHS Cumbria CCG,01229 402900,,http://thefamilypracticebarrow.co.uk,01229 834677
3222,A82631,GP,UNKNOWN,Visible,TRUE,FALSE,Court Thorn Surgery,Court Thorn,Low Hesket,Carlisle,Cumbria,,CA4 0HP,54.80182266,-2.826216698,01H,NHS Cumbria CCG,016974 73548,gp-a82631@nhs.net,http://www.courtthornsurgery.co.uk/,016974 73781
3223,A82632,GP,UNKNOWN,Visible,TRUE,FALSE,Dr Wigmore & Dr Kari,Grosvenor House Surgery,Warwick Square,,Carlisle,Cumbria,CA1 1LB,54.89301682,-2.92586422,01H,NHS Cumbria CCG,01228 536561,,http://www.warwicksquaregrouppractice.co.uk,01228 515786
3224,A82632,GP,UNKNOWN,Visible,TRUE,FALSE,Dr Wigmore & Dr Kari,Morton Surgery,,,Carlisle,Cumbria,CA2 6DT,54.88362503,-2.962974072,01H,NHS Cumbria CCG,01228 590818,,http://www.warwicksquaregrouppractice.co.uk,01228 512900
3225,A82635,GP,UNKNOWN,Visible,TRUE,FALSE,Dr Swain,Grosvenor House Surgery,Warwick Square,,Carlisle,Cumbria,CA1 1LB,54.89307785,-2.925885677,01H,NHS Cumbria CCG,01228 536561,,http://www.warwicksquaregrouppractice.co.uk/,01228 515786
3226,A82635,GP,UNKNOWN,Visible,TRUE,FALSE,Dr Swain,Morton Surgery,,,Carlisle,Cumbria,CA2 6DT,54.88341522,-2.963124275,01H,NHS Cumbria CCG,01228 590818,,http://www.warwicksquaregrouppractice.co.uk,01228 512900
3227,A82641,GP,UNKNOWN,Visible,TRUE,FALSE,Dr Frost,Morton Surgery,,,Carlisle,Cumbria,CA2 6DT,54.88352585,-2.963145733,01H,NHS Cumbria CCG,01228 590818,,http://www.warwicksquaregrouppractice.co.uk,01228 512900
3228,A82641,GP,UNKNOWN,Visible,TRUE,FALSE,Dr Frost,Grosvenor House Surgery,Warwick Square,,Carlisle,Cumbria,CA1 1LB,54.89308929,-2.925907135,01H,NHS Cumbria CCG,01228 536561,,http://www.warwicksquaregrouppractice.co.uk,01228 515786
3229,A82642,GP,UNKNOWN,Visible,TRUE,TRUE,Hawkshead Medical Practice,Red Lion Yard,Hawkshead,Ambleside,Cumbria,,LA22 0NU,54.37542725,-2.998254776,01H,NHS Cumbria CCG,01539 436246,,,01539 436710
3230,A82646,GP,UNKNOWN,Visible,TRUE,FALSE,Esk Valley Medical Group,Longtown Medical Centre,Longtown,Carlisle,Cumbria,,CA6 5XA,55.01050949,-2.964370728,01H,NHS Cumbria CCG,01228 791328,,,01228 791942
3234,A82651,GP,UNKNOWN,Visible,TRUE,FALSE,Dr N L Hall & Dr L A Wilson,Askew Gate,,Kirkby In Furness,Cumbria,,LA17 7TE,54.23229599,-3.184111834,01H,NHS Cumbria CCG,01229 889247,,,01229 889097
3235,A82651,GP,UNKNOWN,Visible,TRUE,FALSE,Dr N L Hall & Dr L A Wilson,Broughton Surgery,Foxfield Road,Broughton In Furness,Cumbria,,LA20 6EZ,54.27478409,-3.211806536,01H,NHS Cumbria CCG,01229 716337,,,01229 716337
3239,A83005,GP,UNKNOWN,Visible,TRUE,TRUE,Whinfield Medical Practice - Dr Harker & Partners,Whinbush Way,,Darlington,County Durham,,DL1 3RT,54.54629898,-1.524963379,00C,NHS Darlington CCG,01325 481 321,,http://www.whinfield.co.uk,01325 346 683
3240,A83006,GP,UNKNOWN,Visible,TRUE,TRUE,Orchard Court Surgery,Orchard Road,,Darlington,County Durham,,DL3 6HZ,54.53230286,-1.566663861,00C,NHS Darlington CCG,01325 465285,,,01325 284034
3244,A83009,GP,UNKNOWN,Visible,TRUE,TRUE,Lilly & Partners,Bridge End Surgery,Picktree Lane,,Chester le Street,Durham,DH3 3SL,54.85930634,-1.573464274,00J,NHS North Durham CCG,0191 3883236,,https://www.bridgeendsurgery.com,0191 3890989
3245,A83010,GP,UNKNOWN,Visible,TRUE,TRUE,Dr Rhodes & Partners,139a Willow Road,Darlington,Co Durham,,,DL3 9JP,54.53424454,-1.577538252,00C,NHS Darlington CCG,01325 469 168,,http://www.moorlandssurgerydarlington.co.uk,01325 353 695
3251,A83014,GP,UNKNOWN,Visible,TRUE,TRUE,Sherburn Surgery,Gray Avenue,,Sherburn,Co. Durham,,DH6 1JE,54.77850342,-1.50800693,00J,NHS North Durham CCG,0844 4773502,kim.metcalfe1@nhs.net,,0191 3721238
3252,A83014,GP,UNKNOWN,Visible,TRUE,TRUE,Belmont Surgery,Broomside Lane,,Belmont,Co. Durham,,DH1 2QW,54.78615952,-1.528082132,00J,NHS North Durham CCG,0844 4773492,kim.metcalfe1@nhs.net,,0191 3860592
3255,A83016,GP,UNKNOWN,Visible,TRUE,TRUE,Tanfield View Medical Group,Scott Street,Tanfield,Stanley,County Durham,,DH9 8AD,54.86994171,-1.701357961,00J,NHS North Durham CCG,01207 232 384,kate.pickering@gp-a83016.nhs.uk,,01207 237 763
3260,A83018,GP,UNKNOWN,Visible,TRUE,TRUE,Young & Partners,Station Yard,,Consett,County Durham,,DH8 5YA,54.85118866,-1.828025103,00J,NHS North Durham CCG,01207 583400,,consettmedicalcentre.co.uk,01207 508120
3268,A83022,GP,UNKNOWN,Visible,TRUE,TRUE,Dr Murray & Partners,Mackenzie House,Newhouse Road,Esh Winning,DH7 9LA,Durham,DH7 9LA,54.77201843,-1.706617832,00J,NHS North Durham CCG,0191 3734 232,,,
3269,A83022,GP,UNKNOWN,Visible,TRUE,TRUE,Dr Murray & Partners,Rear Church Street,Langley Park,Co Durham,Durham,Durham,DH7 9XD,54.79949188,-1.674345016,00J,NHS North Durham CCG,0191 373 1386,,http://www.themedicalgroup.co.uk/,0191 373 4288
3270,A83022,GP,UNKNOWN,Visible,TRUE,TRUE,Dr Murray & Partners,Rear High Street,Tow Law,Bishop Auckland,Durham,,DL13 4DH,54.74531937,-1.815072775,00J,NHS North Durham CCG,01388 730 251,,http://www.themedicalgroup.co.uk/,01388 730 450
3271,A83022,GP,UNKNOWN,Visible,TRUE,TRUE,Dr Murray & Partners,Sawmills Lane,Meadowfield,Durham,Durham,,DH7 8NH,54.74824905,-1.628860712,00J,NHS North Durham CCG,0191 378 0651,,http://www.themedicalgroup.co.uk/,0191 378 7328
3272,A83022,GP,UNKNOWN,Visible,TRUE,TRUE,Dr Murray & Partners,Durham Road,Ushaw Moor,Durham,,,DH7 7QH,54.77645493,-1.64119935,00J,NHS North Durham CCG,0191 373 0202,,,0191 373 0519
3273,A83023,GP,UNKNOWN,Visible,TRUE,TRUE,Stanley Medical Group,Stanley Primary Care Centre,Clifford Road,Stanley,County Durham,,DH9 0AB,54.87001419,-1.698054075,00J,NHS North Durham CCG,01207 285800,cd-pct.stanleymedicalgroup@nhs.net,www.stanleymedicalgroup.co.uk,01207 285588
3274,A83023,GP,UNKNOWN,Visible,TRUE,TRUE,Stanley Medical Group - Branch,16 Front Street,Annfield Plain,Stanley,Co Durham,Durham,DH9 8HY,54.85834503,-1.73819077,00J,NHS North Durham CCG,01207 214849,,,01207 214847
3275,A83024,GP,UNKNOWN,Visible,TRUE,FALSE,Dr Nicholson & Partners,Woodland View,West Rainton,Houghton-le-Spring,Tyne and Wear,Durham,DH4 6RQ,54.81049728,-1.505254388,00J,NHS North Durham CCG,0191 584 3809,,http://www.westraintonsurgery.co.uk,
3278,A83026,GP,UNKNOWN,Visible,TRUE,TRUE,Dr Walton  & Partners,Front Street,,Sacriston,Co. Durham,,DH7 6JW,54.81968689,-1.628397584,00J,NHS North Durham CCG,0191 371 0232,,,0191 371 8306
3279,A83027,GP,UNKNOWN,Visible,TRUE,TRUE,Dr Woods & Partners,,1 Lansdowne Road,Coxhoe,Durham,,DH6 4DH,54.7146759,-1.504324675,00J,NHS North Durham CCG,0191 3770215,,,0191 3770604
3280,A83028,GP,UNKNOWN,Visible,TRUE,TRUE,Middle Chare Medical Group - Middle Chare Surgery,Middle Chare Surgery,Middle Chare,Chester-le-Street,Co.Durham,,DH3 3QD,54.85583496,-1.57327044,00J,NHS North Durham CCG,0191 5947654,,,0191 3887448
3281,A83028,GP,UNKNOWN,Visible,TRUE,TRUE,Middle Chare medical Group - Woodlands Surgery,Woodlands Surgery,Vigo Lane,Washington,Tyne and Wear,,NE38 9EJ,54.87965012,-1.548213243,00J,NHS North Durham CCG,0191 5947654,,,
3282,A83029,GP,UNKNOWN,Visible,TRUE,TRUE,Fletcher & Partners,Front Street,Great Lumley,Chester-le-Street,Co. Durham,,DH3 4LE,54.83727646,-1.543040156,00J,NHS North Durham CCG,0191 3885600,elizabethsimpson2@nhs.net,http://www.greatlumleysurgery.co.uk,0191 3883912
3283,A83030,GP,UNKNOWN,Visible,TRUE,TRUE,Dunelm Medical Practice - Gilesgate,Sunderland Road,,Durham,Durham,,DH1 2QG,54.77960968,-1.551961303,00J,NHS North Durham CCG,0191 386 4242,,,0191 373 6216
3284,A83030,GP,UNKNOWN,Visible,TRUE,TRUE,Dunelm Medical Practice - Framwellgate Moor,50 Front Street,Framwellgate Moor,Durham,Durham,,DH1 5BL,54.79600906,-1.589715242,00J,NHS North Durham CCG,0191 386 6044,,,0191 373 6216
3285,A83030,GP,UNKNOWN,Visible,TRUE,TRUE,Dunelm Medical Practice - Bearpark,1 Victor Terrace,Bearpark,Durham,Durham,,DH7 7DG,54.78343201,-1.636115432,00J,NHS North Durham CCG,0191 373 2077,,,0191 373 6216
3286,A83031,GP,UNKNOWN,Visible,TRUE,TRUE,Carmel Medical Practice,Nunnery Lane,,Darlington,County Durham,,DL3 8SQ,54.52796936,-1.579256415,00C,NHS Darlington CCG,01325 520 794,,http://www.carmelmedicalcentre.co.uk,01325 381 834
3290,A83033,GP,UNKNOWN,Visible,TRUE,TRUE,Pelton and Fellrose Medical Group,The Lavender Centre,Pelton Lane,Pelton,Co. Durham,,DH2 1HS,54.87321091,-1.603881121,00J,NHS North Durham CCG,0191 370 0500,,http://www.peltonandfellrose.nhs.uk/,0191 370 4181
3291,A83033,GP,UNKNOWN,Visible,TRUE,TRUE,Dr Wheatley & Partners,Craghead Road,Pelton Fell,Chester-le-Street,Co. Durham,,DH2 2NH,54.85866547,-1.608662367,00J,NHS North Durham CCG,0191 388 9898,,,0191 3408896
3296,A83036,GP,UNKNOWN,Visible,TRUE,TRUE,Chastleton Medical Group,Newton Drive,,Framwellgate Moor,Co. Durham,,DH1 5BH,54.79575729,-1.587104797,00J,NHS North Durham CCG,0191 384 6171,,http://www.chastletonmedicalgroup.co.uk,0191 386 3743
3299,A83038,GP,UNKNOWN,Visible,TRUE,TRUE,Cedars Medical Group,Cedars Medical Group,Cedar Crescent,Burnopfield,Newcastle upon Tyne,Northumberland,NE16 6HU,54.90557098,-1.740426779,00J,NHS North Durham CCG,01207 272272,,http://www.cedarsmedicalgroup.co.uk,01207 272966
3300,A83038,GP,UNKNOWN,Visible,TRUE,TRUE,Cedars Medical Group - Stanley,Clifford Rd,Burnopfield,Newcastle Upon Tyne,Stanley,,DH9 0AB,54.87001419,-1.698054075,00J,NHS North Durham CCG,01207 272272,,http://www.cedarsmedicalgroup.co.uk,01207 272966
3301,A83040,GP,UNKNOWN,Visible,TRUE,TRUE,Clifton Court Medical Practice,Victoria Road,,Darlington,County Durham,,DL1 5JN,54.52105331,-1.548367858,00C,NHS Darlington CCG,01325 465 646,margaret.wood@gp-a83040.nhs.uk,,01325 482 524
3311,A83047,GP,UNKNOWN,Visible,TRUE,TRUE,Dr Uitenbosch & Partners,Denmark Street Surgery,Denmark Street,,Darlington,Durham,DL3 0PD,54.53892517,-1.552235484,00C,NHS Darlington CCG,01325 460731,,,01325 362183
3312,A83048,GP,UNKNOWN,Visible,TRUE,TRUE,Bagshaw & Williams,Rockliffe Court,Hurworth Place,Darlington,County Durham,,DL2 2DS,54.48350906,-1.544058323,00C,NHS Darlington CCG,01325 720605,,,1325
3313,A83049,GP,UNKNOWN,Visible,TRUE,TRUE,Dr Stuart and Partners,83 Queens Road,,,Consett,Durham,DH8 0BW,54.8666954,-1.843851447,00J,NHS North Durham CCG,01207 585 890,,,01207 585 891
3315,A83050,GP,UNKNOWN,Visible,TRUE,TRUE,Cestria Health Centre,Whitehill Way,,,Chester Le Street,Durham,DH2 3DJ,54.85172272,-1.59766984,00J,NHS North Durham CCG,0191 3887771,,http://www.cestriahealthcentre.nhs.uk/,0191 3871803
3322,A83055,GP,UNKNOWN,Visible,TRUE,TRUE,Cheveley Park Medical Centre,The Links,,Belmont,Durham,,DH1 2UW,54.78560257,-1.525802851,00J,NHS North Durham CCG,0191 3864285,heather.crampton@nhs.net,,0191 3865934
3332,A83070,GP,UNKNOWN,Visible,TRUE,TRUE,MARSHALL & PARTNERS - Middleton Lane,Middleton Lane,Middleton St George,Darlington,County Durham,,DL2 1AA,54.51259232,-1.467278361,00C,NHS Darlington CCG,01325 332022,felix.house@nhs.net,http://www.felixhousesurgery.co.uk,01325 333 626
3335,A83072,GP,UNKNOWN,Visible,TRUE,TRUE,Park House Surgery,Lanchester Medical Centre,Durham Road,Lanchester,Durham,Durham,DH7 0LP,54.81985855,-1.739687085,00J,NHS North Durham CCG,01207 520 877,,,01207 521 997
3336,A83073,GP,UNKNOWN,Visible,TRUE,TRUE,Lambert & Brunt,Laxey Street,Stanley,Co Durham,,,DH9 8AA,54.86940002,-1.700255632,00J,NHS North Durham CCG,01207 214673,audrey.allan@gp-a83073.nhs.uk,,01207 214674
3337,A83073,GP,UNKNOWN,Visible,TRUE,TRUE,Drs Lambert & Brunt,West Road Surgery,9 West Road,Stanley,Co Durham,,DH9 7XT,54.85765076,-1.737572193,00J,NHS North Durham CCG,01207 214 925,audrey.allan@gp-a83073.nhs.uk,,01207 214 926
3346,A83617,GP,UNKNOWN,Visible,TRUE,TRUE,Dr Nagi ,3 Croft View,Lanchester,Durham,Co Durham,,DH7 0HY,54.82366562,-1.746539354,00J,NHS North Durham CCG,01207 521 906,louise.young@gp-a83617.nhs.uk,,
3347,A83617,GP,UNKNOWN,Visible,TRUE,TRUE,Browney House Surgery,Front Street,,Langley Park,County Durham,,DH7 9YT,54.80030823,-1.670651913,00J,NHS North Durham CCG,0191 373 2860,louise.young3@nhs.net,,0191 373 0685
3348,A83618,GP,UNKNOWN,Visible,TRUE,TRUE,Oakfields Health Centre,Hamsterley Colliery,Newcastle Upon Tyne,Tyne and Wear,,,NE17 7SB,54.90360641,-1.816417813,00J,NHS North Durham CCG,01207 560206,,,01207 560172
3352,A83641,GP,UNKNOWN,Visible,TRUE,TRUE,Parkgate Health Centre,Park Place,Darlington,Co Durham,,,DL1 5LW,54.52333069,-1.548589945,00C,NHS Darlington CCG,01325 735 000,,,01325 735 001
3353,A83622,GP,UNKNOWN,Visible,TRUE,TRUE,The Haven Surgery,The Haven,Burnhope,Co Durham,,,DH7 0BD,54.82510757,-1.712257028,00J,NHS North Durham CCG,01207 214 707,,,
3356,A83630,GP,UNKNOWN,Visible,TRUE,TRUE,Brandon Lane Surgery,Brandon Lane Surgery,Stack Garth,Brandon,Co. Durham,,DH7 8SJ,54.75405502,-1.639113307,00J,NHS North Durham CCG,0191 3782099,,,0191 3780898
3357,A83632,GP,UNKNOWN,Visible,TRUE,FALSE,Craghead Medical Centre,The Middles,Craghead,Stanley,County Durham,England - Uk,DH9 6AN,54.85715103,-1.679332972,00J,NHS North Durham CCG,01207 290032,,,01207 237916
3359,A83635,GP,UNKNOWN,Visible,TRUE,TRUE,Bowburn Medical Centre,Bow Street,Bowburn,Durham,,England - Uk,DH6 5AL,54.73625183,-1.527295351,00J,NHS North Durham CCG,0191 377 2495,,,0191 377 3379
3361,A83637,GP,UNKNOWN,Visible,TRUE,TRUE,Middle Chare medical Group - Gardiner Crescent Surgery,Gardiner Crescent Surgery,21 Gardiner Crescent,Pelton Fell,Chester le street,Durham,DH2 2NJ,54.85840607,-1.610369325,00J,NHS North Durham CCG,0191 5947654,,,0191 3874644
3362,A83637,GP,UNKNOWN,Visible,TRUE,TRUE,Middle Chare Medical Group - Lavender Centre,Lavender Centre (upstairs),Pelton,Chester-le-Street,Co. Durham,,DH2 1HS,54.87359619,-1.603596807,00J,NHS North Durham CCG,0191 5947654,,,
3364,A83644,GP,UNKNOWN,Visible,TRUE,TRUE,Dr Le Dune and Partners,Durham Road,Annfield Plain,Stanley,County Durham,England - Uk,DH9 7TD,54.85676575,-1.735475063,00J,NHS North Durham CCG,01207 215 005,,,01207 215 003
3366,A84002,GP,UNKNOWN,Visible,TRUE,FALSE,The Rothbury Practice,3 Market Place,Rothbury,Morpeth,Northumberland,,NE65 7UW,55.3091011,-1.911641479,00L,NHS Northumberland CCG,01669 620339,norccg.rothburypractice@nhs.net,,01669 620583
3367,A84002,GP,UNKNOWN,Visible,TRUE,FALSE,The Rothbury Practice,Longframlington,,Morpeth,Northumberland,,NE65 8AD,55.30284882,-1.793348789,00L,NHS Northumberland CCG,01665 570311,rothburypractice.a84002@nhs.net,,01665 570311
3368,A84003,GP,UNKNOWN,Visible,TRUE,FALSE,Lintonville Medical Group,Lintonville Terrace,,Ashington,Northumberland,,NE63 9UT,55.18384171,-1.57014811,00L,NHS Northumberland CCG,01670 812772,norccg.lintonville@nhs.net,http://www.lintonville.co.uk,01670 521573
3369,A84005,GP,UNKNOWN,Visible,TRUE,TRUE,Bedlingtonshire Medical Group,Glebe Road,Bedlington,Northumberland,,,NE22 6JX,55.1323204,-1.598587751,00L,NHS Northumberland CCG,01670 822695,admin@gp-a84005.nhs.uk,,01670 531860
3370,A84006,GP,UNKNOWN,Visible,TRUE,FALSE,The Bondgate Practice - Longhoughton,Longhoughton Surgery ,4-6 Portal Place,Longhoughton,Alnwick,Northd,NE66 3JN,55.43438339,-1.619219899,00L,NHS Northumberland CCG,01665 577380,,,01665 577380
3371,A84006,GP,UNKNOWN,Visible,TRUE,FALSE,The Bondgate Practice - Embleton,Embleton Surgery,Westview,Embleton,Alnwick,Northd,NE66 3XZ,55.49879074,-1.640206099,00L,NHS Northumberland CCG,01665 576635,,,01665 576635
3372,A84006,GP,UNKNOWN,Visible,TRUE,FALSE,The Bondgate Practice - Alnwick,The Bondgate Surgery,Infirmary Close,Alnwick,Nothumberland,,NE66 2NL,55.41007614,-1.696653605,00L,NHS Northumberland CCG,01665 510 888,,,01665 510581
3373,A84006,GP,UNKNOWN,Visible,TRUE,FALSE,The Bondgate Practice - Seahouses,Seahouses Health Centre,James Street,Seahouses,Northumberland,,NE68 7XZ,55.57872772,-1.653608561,00L,NHS Northumberland CCG,01665 720294,,,01665 720294
3374,A84007,GP,UNKNOWN,Visible,TRUE,FALSE,Dr Adams & Partners,Main Road,Dinnington,Newcastle Upon Tyne,,England - Uk,NE13 7JW,55.05131149,-1.67332375,00L,NHS Northumberland CCG,01661 824 597,,http://www.pontelandmedicalgroup.co.uk,
3375,A84007,GP,UNKNOWN,Visible,TRUE,FALSE,Ponteland Medical Group,Ponteland Primary Care Centre,Meadowfield,Ponteland,Newcastle Upon Tyne,,NE20 9SD,55.0518074,-1.749672532,00L,NHS Northumberland CCG,01661 825 513,pontelandmedicalgroupa84007@nhs.net,http://www.pontelandmedicalgroup.co.uk,01661 867 631
3377,A84008,GP,UNKNOWN,Visible,TRUE,FALSE,Seahouses Surgery Belford Medical Practice,James Street,,Seahouses,Northumberland,,NE68 7YN,55.57666397,-1.654546618,00L,NHS Northumberland CCG,01665 720917,belford.a84008@nhs.net,www.belfordmedicalpractice.net,1665721021
3378,A84008,GP,UNKNOWN,Visible,TRUE,FALSE,Belford Medical Practice,Croftfield,,Belford,Northumberland,,NE70 7ER,55.59595871,-1.825929999,00L,NHS Northumberland CCG,01668 213738,belford.a84008@nhs.net,www.belfordmedicalpractice.net,01668 213072
3379,A84009,GP,UNKNOWN,Visible,TRUE,FALSE,Waterloo Medical Group - Newsham Surgery,61 Newcastle Road,Newsham,Blyth,Northumberland,,NE24 4AW,55.1092453,-1.530005693,00L,NHS Northumberland CCG,01670 355440,norccg.waterloo-a84009@nhs.net,http://www.waterloomedical-blyth.nhs.uk,01670 354629
3380,A84009,GP,UNKNOWN,Visible,TRUE,FALSE,Waterloo Medical Group - Blyth Health Centre,Blyth Health Centre,Thoroton Street,Blyth,Northd,,NE24 1DX,55.12787628,-1.514920115,00L,NHS Northumberland CCG,01670 355080,norccg.waterloo-a84009@nhs.net,http://www.waterloomedical-blyth.nhs.uk,01670 369818
3381,A84011,GP,UNKNOWN,Visible,TRUE,FALSE,White Medical Group (Stamfordham),12 Grange Road,Stamfordham,Newcastle Upon Tyne,Tyne and Wear,,NE18 0PF,55.04137802,-1.876489162,00L,NHS Northumberland CCG,01661 886587,admin@gp-a84011.nhs.uk,www.whitemedicalgroup.gpsurgery.net,01661 886688
3382,A84011,GP,UNKNOWN,Visible,TRUE,FALSE,White Medical Group (Wylam),Jackson Road,Wylam,Northumberland,,,NE41 8EL,54.97812653,-1.819375038,00L,NHS Northumberland CCG,01661 852515,admin@gp-a84011.nhs.uk,www.whitemedicalgroup.gpsurgery.net,01661 852086
3383,A84011,GP,UNKNOWN,Visible,TRUE,FALSE,White Medical Group (Ponteland),Meadowfield,Ponteland,Newcastle Upon Tyne,,,NE20 9SD,55.0518074,-1.749672532,00L,NHS Northumberland CCG,01661 822222,admin@gp-a84011.nhs.uk,www.whitemedicalgroup.gpsurgery.net,01661 867626
3384,A84013,GP,UNKNOWN,Visible,TRUE,FALSE,Dr M S Harrison & Partners,Miner's Institute,Ridley  Terrace,Cambois,Blyth,,NE24 1QS,55.14493561,-1.520690918,00L,NHS Northumberland CCG,01670 823 917,gables.a84013@nhs.net,www.gablesmedicalgroup.nhs.uk,01670 820 841
3385,A84013,GP,UNKNOWN,Visible,TRUE,FALSE,The Gables Medical Group,The Gables Health Centre,26 St Johns Road,Bedlington,Northumberland,,NE22 7DU,55.14082336,-1.564413786,00L,NHS Northumberland CCG,01670 829 889,gables.a84013@nhs.net,www.gablesmedicalgroup.nhs.uk,01670 820 841
3386,A84014,GP,UNKNOWN,Visible,TRUE,FALSE,Marine Medical Group,Blyth Health Centre,Thoroton Street,,Blyth,,NE24 1DX,55.12787628,-1.514920115,00L,NHS Northumberland CCG,01670 544125,,http://www.marinemedical-blyth.nhs.uk/,01670 354511
3387,A84015,GP,UNKNOWN,Visible,TRUE,FALSE,Dr M S Rasoul & Partners,14 Laburnum Terrace,,Ashington,Northumberland,,NE63 0XX,55.18199158,-1.568158031,00L,NHS Northumberland CCG,01670 813 376,admin@gp-a84015.nhs.uk,,01670 854 346
3388,A84016,GP,UNKNOWN,Visible,TRUE,TRUE,Prudhoe Medical Group,Prudhoe Medical Group,Kepwell Bank Top,,Prudhoe,Northumberland,NE42 5PW,54.96195221,-1.853321791,00L,NHS Northumberland CCG,01661 839370,prudhoemedicalgroup@nhs.net,http://www.prudhoemedicalgroup.com,01661 836338
3389,A84018,GP,UNKNOWN,Visible,TRUE,FALSE,Corbridge Medical Group,Corbridge Health Centre,Newcastle Road,Corbridge,Northumberland,,NE45 5LG,54.97391891,-2.01265502,00L,NHS Northumberland CCG,01434 632011,admin@gp-a84018.nhs.uk,www.corbridge.gpsurgery.net,01434 633878
3390,A84020,GP,UNKNOWN,Visible,TRUE,TRUE,GuidePost Medical Group,,North Parade,,Choppington,Northumberland,NE62 5RA,55.15758896,-1.604078174,00L,NHS Northumberland CCG,01670 822071,admin@gp-a84020.nhs.uk,http://www.guidepostmedicalgroup.nhs.uk/,01670 531060
3391,A84021,GP,UNKNOWN,Visible,TRUE,TRUE,Infirmary Drive Medical Group,The Consulting Rooms,Infirmary Drive,Alnwick,Northd,,NE66 2NR,55.41046524,-1.697724581,00L,NHS Northumberland CCG,01665 602388,,www.infirmarydrive.co.uk,01665 604712
3392,A84022,GP,UNKNOWN,Visible,TRUE,TRUE,Amble Health Centre,Percy Drive,Amble,Morpeth, Northumberland,Northd,NE65 0HD,55.33261108,-1.580488682,00L,NHS Northumberland CCG,01665 710481,admin@gp-a84022.nhs.uk,,01665 513009
3393,A84022,GP,UNKNOWN,Visible,TRUE,TRUE,Broomhill Health Centre,Hadston Road,South Broomhill,Morpeth,Northumberland,,NE65 9SF,55.29374313,-1.602945209,00L,NHS Northumberland CCG,01670 760229,admin@gp-a84022.nhs.uk,,01670 761094
3394,A84024,GP,UNKNOWN,Visible,TRUE,TRUE,Burn Brae Medical Group,Hexham Primary Care Centre,Corbridge Road,Hexham,Northumberland,,NE46 1QJ,54.96955109,-2.095472813,00L,NHS Northumberland CCG,01434 603627,,www.burnbraemedicalgroup.nhs.uk,
3395,A84025,GP,UNKNOWN,Visible,TRUE,FALSE,Dr D Leith & Partners,Forum Way,,Cramlington,Northumberland,,NE23 6QN,55.0844841,-1.591500282,00L,NHS Northumberland CCG,01670 713911,admin@gp-a84025.nhs.uk,,01670 735958
3396,A84026,GP,UNKNOWN,Visible,TRUE,TRUE,Dr J M Watson & Partners,Well Close Square,,Berwick Upon Tweed,Northumberland,,TD15 1LL,55.7723999,-2.006191015,00L,NHS Northumberland CCG,01289 333240,admin@gp-a84026.nhs.uk,http://www.wellclosemedicalgroup.com/,01289 306528
3397,A84027,GP,UNKNOWN,Visible,TRUE,TRUE,Bellingham Practice,Health Centre,Bellingham,Hexham,Northd,,NE48 2HE,55.14383316,-2.257966757,00L,NHS Northumberland CCG,01434 220203,admin@gp-a84027.nhs.uk,www.thebellinghampractice.co.uk,01434 220798
3398,A84028,GP,UNKNOWN,Visible,TRUE,FALSE,Seaton Park Medical Group - Norham Road Branch,Norham Road,,Ashington,Northumberland,,NE63 0NG,55.17090607,-1.560993314,00L,NHS Northumberland CCG,01670 811 811,admin@gp-a84028.nhs.uk,www.seatonparkmedicalgroup.co.uk,
3399,A84028,GP,UNKNOWN,Visible,TRUE,FALSE,Seaton Park Medical Group - Newbiggin Branch,Buteland Terrace,,Newbiggin By The Sea,Northumberland,England - Uk,NE64 6NS,55.18313217,-1.517170548,00L,NHS Northumberland CCG,01670 811 811,admin@gp-a84028.nhs.uk,www.seatonparkmedicalgroup.co.uk,01670 816 946
3400,A84028,GP,UNKNOWN,Visible,TRUE,FALSE,Seaton Park Medical Group - Nursery Park Branch,Nursery Park,,Ashington,Northumberland,,NE63 0HP,55.16976929,-1.560409307,00L,NHS Northumberland CCG,01670 811 811,admin@gp-a84028.nhs.uk,www.seatonparkmedicalgroup.co.uk,01670 857 948
3401,A84029,GP,UNKNOWN,Visible,TRUE,FALSE,Widdrington Surgery,Grange Road,Widdrington,Morpeth,Northumberland,,NE61 5LX,55.24022293,-1.620557189,00L,NHS Northumberland CCG,01670 790229,admin@gp-a84029.nhs.uk,http://www.widdringtonsurgery.nhs.uk,01670 791312
3402,A84030,GP,UNKNOWN,Visible,TRUE,FALSE,Village Surgery,Dudley Lane,,Cramlington,Northumberland,,NE23 6US,55.08467484,-1.587065101,00L,NHS Northumberland CCG,01670 712821,village@gp-a84030.nhs.uk,www.the-village-surgery.co.uk,01670 730837
3403,A84031,GP,UNKNOWN,Visible,TRUE,FALSE,Greystoke Surgery,Morpeth NHS Centre,The Mount,,Morpeth,Northumberland,NE61 1JX,55.17151642,-1.684247494,00L,NHS Northumberland CCG,01670 511393,ga84031@nhs.net,,01670 503282
3404,A84032,GP,UNKNOWN,Visible,TRUE,FALSE,Cheviot Medical Group,Cheviot Primary Care Centre,Padgepool Place,Wooler,Northumberland,Northumberland,NE71 6BL,55.54652786,-2.018404722,00L,NHS Northumberland CCG,01668 281 575,norccg.admin-a84032@nhs.net,https://www.cheviotmedicalgroup.co.uk,01668 282 442
3405,A84033,GP,UNKNOWN,Visible,TRUE,TRUE,The Sele Medical Practice,Hexham Primary Care Centre,Corbridge Road,Hexham,Northumberland,,NE46 1QJ,54.97037125,-2.094569206,00L,NHS Northumberland CCG,01434 602237,norccg.sele-admin@nhs.net,http://www.selemedicalpractice.co.uk,01434 613063
3406,A84034,GP,UNKNOWN,Visible,TRUE,FALSE,Haltwhistle Medical Group,Greencroft Avenue,,Haltwhistle,Northumberland,,NE49 9AP,54.97008514,-2.464809418,00L,NHS Northumberland CCG,01434 320077,,www.haltwhistlemedicalgroup.co.uk,01434 320674
3408,A84035,GP,UNKNOWN,Visible,TRUE,FALSE,Riversdale Surgery,51 Woodcroft Road,51 Woodcroft Road,,Wylam,Northumberland,NE41 8DH,54.97544479,-1.823370934,00L,NHS Northumberland CCG,01661 852208,,http://www.riversdalesurgery.co.uk,01661 853779
3410,A84036,GP,UNKNOWN,Visible,TRUE,FALSE,Wellway Medical Pegswood,West View,Pegswood,Morpeth,Northumberland,,NE61 6TB,55.17841339,-1.65184176,00L,NHS Northumberland CCG,01670 515326,norccg.wellwayenquiries@nhs.net,http://www.wellway.co.uk,01670 500191
3411,A84036,GP,UNKNOWN,Visible,TRUE,FALSE,Wellway Medical Morpeth,The Surgery,Wellway,Morpeth,Northumberland,,NE61 1BJ,55.16937637,-1.689675331,00L,NHS Northumberland CCG,01670 502333,norccg.wellwayenquiries@nhs.net,http://www.wellway.co.uk,01670 511931
3412,A84036,GP,UNKNOWN,Visible,TRUE,FALSE,Wellway Medical Newbiggin,The Health Centre,Buteland Terrace,Newbiggin by the Sea,Northumberland,,NE64 6NS,55.18313217,-1.517170548,00L,NHS Northumberland CCG,01670 816921,norccg.wellwayenquiries@nhs.net,http://www.wellway.co.uk,01670 818797
3413,A84036,GP,UNKNOWN,Visible,TRUE,FALSE,Wellway Medical Lynemouth,Albion Terrace,Lynemouth,Morpeth,Northumberland,,NE61 5TB,55.21435547,-1.545176387,00L,NHS Northumberland CCG,01670 860212,norccg.wellwayenquiries@nhs.net,http://www.wellway.co.uk,01670 860669
3414,A84037,GP,UNKNOWN,Visible,TRUE,FALSE,Netherfield House Surgery,Netherfield House,Station Road,Seghill,Cramlington,Northd,NE23 7EF,55.06362915,-1.548404932,00L,NHS Northumberland CCG,0191 237 0643,admin@gp-a84037.nhs.uk,,0191 237 1091
3415,A84038,GP,UNKNOWN,Visible,TRUE,FALSE,Forum Family Practice,The Health Centre,Forum Way,Cramlington,Northumberland,,NE23 6QN,55.0844841,-1.591500282,00L,NHS Northumberland CCG,01670 713021,admin@gp-a84038.nhs.uk,http://www.forumfamilypractice.co.uk,01670 735880
3416,A84039,GP,UNKNOWN,Visible,TRUE,FALSE,Gas House Lane Surgery,Gas House Lane Surgery,Morpeth NHS Centre,The Mount,Morpeth,Northumberland,NE61 1JX,55.17152023,-1.68392849,00L,NHS Northumberland CCG,01670 513657,gashouse.a84039@nhs.net,http://www.gashouselane.gpsurgery.net,01670 513201
3417,A84040,GP,UNKNOWN,Visible,TRUE,FALSE,Dr N K Keep & Partners - Wark,The Surgery,Wark,Hexham,Northumberland,,NE48 3LS,55.08540344,-2.219491482,00L,NHS Northumberland CCG,01434 230654,admin@gp-a84040.nhs.uk,,01434 230059
3419,A84042,GP,UNKNOWN,Visible,TRUE,FALSE,Dr N R Winslow & Partner,Scots Gap,,Morpeth,Northumberland,,NE61 4EG,55.17276001,-1.940547347,00L,NHS Northumberland CCG,01670 774216,admin@gp-a84042.nhs.uk,,01670 774386
3420,A84042,GP,UNKNOWN,Visible,TRUE,FALSE,Dr N R Winslow & Partner,16 Grange Road,,Stamfordham,Newcastle-Upon Tyne,,NE18 0PF,55.04137802,-1.876489162,00L,NHS Northumberland CCG,01661 886 203,admin@gp-a84042.nhs.uk,,
3421,A84043,GP,UNKNOWN,Visible,TRUE,FALSE,Dr A P Dove & Partners,Westbourne Terrace,,Seaton Delaval,Northumberland,,NE25 0BE,55.06967926,-1.51455915,00L,NHS Northumberland CCG,0191 237 5458,admin@gp-a84043.nhs.uk,,0191 210 6211
3422,A84043,GP,UNKNOWN,Visible,TRUE,FALSE,Dr A P Dove & Partners,Collywell Bay Road,Seaton Sluice,Whitley Bay,Tyne and Wear,,NE26 4QZ,55.08320618,-1.472100258,00L,NHS Northumberland CCG,0191 298 0901,admin@gp-a84043.nhs.uk,,0191 237 4051
3423,A84043,GP,UNKNOWN,Visible,TRUE,FALSE,Brockwell Medical Group,Northumbrian Road,,Cramlington,Northumberland,,NE23 1XZ,55.09560013,-1.584226012,00L,NHS Northumberland CCG,01670 737283,admin@gp-a84043.nhs.uk,http://www.brockwell.co.uk,01670 392701
3424,A84044,GP,UNKNOWN,Visible,TRUE,FALSE,Union Brae & Norham Practice - Norham Surgery,Pedwell Way,Norham,Berwick-upon-Tweed,Northumberland,,TD15 2LD,55.71981049,-2.162660837,00L,NHS Northumberland CCG,01289 382265,admin@gp-a84044.nhs.uk,http://www.unionbrae.com,01289 382186
3425,A84044,GP,UNKNOWN,Visible,TRUE,FALSE,Union Brae & Norham Practice - Union Brae Surgery,Tweedmouth,,Berwick-upon-Tweed,,,TD15 2HB,55.76671982,-2.011784315,00L,NHS Northumberland CCG,01289 330333,admin@gp-a84044.nhs.uk,http://www.unionbrae.com,01289 302556
3426,A84045,GP,UNKNOWN,Visible,TRUE,FALSE,Haydon Bridge and Allendale Medical Practice,North Bank,Haydon Bridge,Hexham,Northd,,NE47 6LA,54.97568512,-2.250012636,00L,NHS Northumberland CCG,01434 684216,admin@gp-a84045.nhs.uk,http://www.haydonbridgesurgery.co.uk/,01434 684144
3427,A84046,GP,UNKNOWN,Visible,TRUE,FALSE,Ahmed,Civic Precinct,Forum Way,Cramlington,Northumberland,,NE23 6QN,55.0844841,-1.591500282,00L,NHS Northumberland CCG,01670 714581,admin@gp-a84046.nhs.uk,,01670 730386
3428,A84047,GP,UNKNOWN,Visible,TRUE,TRUE,Branch End Surgery,Branch End Surgery,,Stocksfield,Northumberland,,NE43 7LL,54.94714355,-1.897853494,00L,NHS Northumberland CCG,01661 842 626,sueshone@nhs.net,http://www.branchendsurgery.co.uk/,01661 844 392
3429,A84048,GP,UNKNOWN,Visible,TRUE,FALSE,Station Medical Group,Gatacre Street,,,Blyth,Northumberland,NE24 1HD,55.12875366,-1.514156818,00L,NHS Northumberland CCG,01670 542630,admin@gp-a84048.nhs.uk,http://www.stationmedicalgroup-blyth.nhs.uk,01670 396517
3430,A84604,GP,UNKNOWN,Visible,TRUE,TRUE,Glendale Surgery,Cheviot Primary Care Centre,Padgepool Place,Wooler,Northd,,NE71 6BL,55.54652786,-2.018404722,00L,NHS Northumberland CCG,01668 281740,nct-tr.glendaleadmin@nhs.net,www.glendalesurgery.nhs.uk,01668 281514
3432,A84613,GP,UNKNOWN,Visible,TRUE,FALSE,Harbottle Surgery,The Village Hall,Harbottle,Morpeth,Northumberland,,NE65 7DG,55.33637619,-2.10581398,00L,NHS Northumberland CCG,01669 650 280,admin@gp-a84613.nhs.uk,,01669 650 439
3433,A84614,GP,UNKNOWN,Visible,TRUE,FALSE,Dr S C Haywood,16a Adderlane Road,West Wylam,Prudhoe,Northumberland,,NE42 5HR,54.96260834,-1.845713615,00L,NHS Northumberland CCG,01661 836 386,admin@gp-a84614.nhs.uk,,01661 831 353
3434,A84618,GP,UNKNOWN,Visible,TRUE,FALSE,Haydon Bridge and Allendale Medical Practice,The Health Centre,Allendale,Hexham,Northumberland,,NE47 9LG,54.89756012,-2.248997927,00L,NHS Northumberland CCG,01434 683 280,admin@gp-a84045.nhs.uk,,01434 683 884
3435,A84619,GP,UNKNOWN,Visible,TRUE,FALSE,Dr P McDaid,Elsdon Avenue,Seaton Delaval,Whitley Bay,Tyne and Wear,,NE25 0EF,55.07144928,-1.528240442,00L,NHS Northumberland CCG,0191 237 2299,admin.mcdaid@gp-a84004.nhs.uk,,0191 237 5419
3436,A85001,GP,UNKNOWN,Visible,TRUE,FALSE,Dr Finnerty & Partners,575 Durham Road,Low Fell,Gateshead,Tyne and Wear,,NE9 5EY,54.93505096,-1.598992825,00F,NHS Gateshead CCG,0191 491 3322,,http://www.gasthealth.nhs.uk/gps/fell-tower-mc/,0191 491 5637
3437,A85002,GP,UNKNOWN,Visible,TRUE,FALSE,Dr Ranu & Partner,Sidney Grove,Bensham,Gateshead,Tyne and Wear,,NE8 2XB,54.95279312,-1.617037892,00F,NHS Gateshead CCG,0191 477 6955,gccg.a85002@nhs.net,,0191 477 1554
3438,A85002,GP,UNKNOWN,Visible,TRUE,FALSE,Dr Ranu & Partner,406 Lobley Hill Road,,Gateshead,Tyne and Wear,,NE11 0BS,54.94018936,-1.633469105,00F,NHS Gateshead CCG,0191 460 4380,harpal.ranu@gp-a85002.nhs.uk ,,
3441,A85004,GP,UNKNOWN,Visible,TRUE,FALSE,Dr Brumby & Partners,2 Longrigg,Leam Lane Estate,Felling,Gateshead,,NE10 8PH,54.94373322,-1.545721412,00F,NHS Gateshead CCG,0191 469 2173,,,0191 495 0893
3442,A85005,GP,UNKNOWN,Visible,TRUE,FALSE,Oxford Terrace and Rawling Road Medical Group,Main site: Oxford Terrace Medical Group,Gateshead,Tyne and Wear,1 Oxford Terrace,,NE8 1RQ,54.95433044,-1.60626483,00F,NHS Gateshead CCG,0191 477 2169,,http://www.otmg.co.uk,0191 477 5633
3444,A85006,GP,UNKNOWN,Visible,TRUE,FALSE,Dr Tasker & Partners,Glenpark Medical Centre,61 Ravensworth Road,Dunston,Gateshead,Tyne and Wear,NE11 9AD,54.95325089,-1.640126944,00F,NHS Gateshead CCG,0191 460 4300,,http://www.glenpark.info,0191 461 0106
3445,A85007,GP,UNKNOWN,Visible,TRUE,FALSE,Dr Bryson & Partners,123 Kells Lane,,Gateshead,,,NE9 5XY,54.93851089,-1.594057322,00F,NHS Gateshead CCG,0191 487 2656,,http://www.fellcottagesurgery.nhs.uk,0191 491 0475
3446,A85008,GP,UNKNOWN,Visible,TRUE,FALSE,Birtley Medical Group,Birtley Medical Group,Durham Road,,Birtley,Durham,DH3 2QT,54.89191818,-1.576393962,00F,NHS Gateshead CCG,0191 4921022,,http://www.birtleymedicalgroup.nhs.uk/,0191 410 9672
3448,A85009,GP,UNKNOWN,Visible,TRUE,FALSE,Crowhall Medical Group,Stephenson Terrace,Felling,Gateshead,Tyne and Wear,,NE10 9QG,54.94797516,-1.568326831,00F,NHS Gateshead CCG,0191 4699391,,,0191 438 4661
3449,A85010,GP,UNKNOWN,Visible,TRUE,FALSE,Chainbridge Medical Partnership,,Shibdon Road,Blaydon,Tyne and Wear,,NE21 5AE,54.96409988,-1.712483644,00F,NHS Gateshead CCG,0844 477 2550,,http://www.chainbridge.nhs.uk,0191 461 5651
3450,A85011,GP,UNKNOWN,Visible,TRUE,FALSE,St Albans Medical Group,Felling Health Centre,Stephenson Terrace,Gateshead,Tyne and Wear,,NE10 9QG,54.94797516,-1.568326831,00F,NHS Gateshead CCG,0191 469 2316,,http://stalbansmedicalgroup.nhs.uk,0191 495 0059
3451,A85011,GP,UNKNOWN,Visible,TRUE,FALSE,St Albans Medical Group,Bede Centre,Old Fold Road,Gateshead,,England - Uk,NE10 0DJ,54.95716095,-1.581751704,00F,NHS Gateshead CCG,0191 469 2316,,,
3452,A85012,GP,UNKNOWN,Visible,TRUE,FALSE,Dr Imam & Dr Khan,Jackson Street,,Gateshead,Tyne and Wear,,NE8 1HR,54.96176147,-1.602975011,00F,NHS Gateshead CCG,0191 477 2033,,,0191 478 2083
3453,A85013,GP,UNKNOWN,Visible,TRUE,FALSE,Millennium Family Practice,Trinity Square Health Centre,24 West Street,Gateshead,Tyne and Wear,,NE8 1AD,54.96272278,-1.603449702,00F,NHS Gateshead CCG,0191 478 3678,,,0191 477 1211
3454,A85014,GP,UNKNOWN,Visible,TRUE,FALSE,Crawcrook Medical Centre,Pattinson Drive,Crawcook,Ryton,Tyne and Wear,,NE40 4US,54.96570969,-1.787458777,00F,NHS Gateshead CCG,0191 413 5473,,,0191 413 8098
3455,A85014,GP,UNKNOWN,Visible,TRUE,FALSE,Dr Chapman & Partners,Greenside Community Centre,Greenside Road,Greenside,Ryton,Tyne and Wear,NE40 4AA,54.95692825,-1.782102108,00F,NHS Gateshead CCG,0191 413 2406,,http://crawcrookmedicalcentre.nhs.uk/,
3457,A85016,GP,UNKNOWN,Visible,TRUE,FALSE,Dr Kaura & Partners,Wrekenton Health Centre,Springwell Road,Gateshead,Tyne and Wear,,NE9 7AD,54.92555618,-1.571359754,00F,NHS Gateshead CCG,0191 487 6129,,,0191 487 3136
3458,A85017,GP,UNKNOWN,Visible,TRUE,FALSE,Bewick Road Surgery,10 Bewick Road,,Gateshead,Gateshead,,NE8 4DP,54.9564209,-1.60185647,00F,NHS Gateshead CCG,0191 477 2296,gccg.a85017@nhs.net,http://www.bewickroadsurgery.co.uk,0191 477 2304
3459,A85018,GP,UNKNOWN,Visible,TRUE,FALSE,Oldwell Surgery,10 Front Street,Winlaton,Blaydon-on-Tyne,Tyne and Wear,,NE21 4RD,54.95520401,-1.723524332,00F,NHS Gateshead CCG,0191 500 2023,,http://www.oldwellsurgery.co.uk,0191 499 5137
3460,A85019,GP,UNKNOWN,Visible,TRUE,FALSE,Central Gateshead Medical Group,Prince Consort Road,,Gateshead,Tyne and Wear,,NE8 1NB,54.95630264,-1.604293585,00F,NHS Gateshead CCG,0191 477 2243,,http://www.centralgatesheadmedicalgroup.co.uk,0191 478 6728
3461,A85020,GP,UNKNOWN,Visible,TRUE,FALSE,The Whickham Practice,Whickham Cottage Medical Centre,Rectory Lane,Whickham,Newcastle Upon Tyne,Tyne and Wear,NE16 4PD,54.94539261,-1.677289128,00F,NHS Gateshead CCG,0191 488 5555,,http://www.whickhampractice.nhs.uk/,0191 496 0424
3462,A85021,GP,UNKNOWN,Visible,TRUE,FALSE,Dr Kumar,Second Street,,Gateshead,Tyne and Wear,,NE8 2UR,54.95460892,-1.614881396,00F,NHS Gateshead CCG,0191 477 2430,,,0191 478 6823
3463,A85023,GP,UNKNOWN,Visible,TRUE,FALSE,Teams Medical Practice,Watson Street,Gateshead,Tyne and Wear,,,NE8 2PQ,54.95503616,-1.624808431,00F,NHS Gateshead CCG,0191 460 4239,,http://www.teamsmedicalpractice.nhs.uk,0191 460 1523
3464,A85024,GP,UNKNOWN,Visible,TRUE,FALSE,Dr M S Hassan,Primary Healthcare Centre,South Road,Chopwell,Newcastle upon Tyne,,NE17 7BU,54.91978073,-1.813395739,00F,NHS Gateshead CCG,01207 561 736,chopwell.medicalpractice@nhs.net,http://www.chopwellmedicalpractice.nhs.uk,01207 563 610
3466,A85026,GP,UNKNOWN,Visible,TRUE,FALSE,Beacon View Medical Centre ,Beacon Lough Road,Beacon Lough,Gateshead,Tyne and Wear,,NE9 6YS,54.93286514,-1.585312247,00F,NHS Gateshead CCG,0191 482 4000,,www.beaconviewmedicalcentre.co.uk,0191 491 4107
3468,A85605,GP,UNKNOWN,Visible,TRUE,FALSE,Dr S M Hilton ,7 Elvaston Road,,Ryton,Tyne and Wear,,NE40 3NT,54.97642899,-1.762061477,00F,NHS Gateshead CCG,0191 413 3459,,,0191 413 3580
3469,A85609,GP,UNKNOWN,Visible,TRUE,FALSE,Dr N Muthu Krishnan & Partners,108 Rawling Road,,Gateshead,Tyne and Wear,,NE8 4QR,54.95131302,-1.615115881,00F,NHS Gateshead CCG,0191 420 3255,,,0191 420 3253
3470,A85611,GP,UNKNOWN,Visible,TRUE,FALSE,Pelaw Medical Practice,7-8 Croxdale Terrace,,Gateshead,Tyne and Wear,,NE10 0RR,54.95478439,-1.540412664,00F,NHS Gateshead CCG,0191 469 2337,,,0191 438 6132
3471,A85614,GP,UNKNOWN,Visible,TRUE,FALSE,Bridges Medical Practice,Trinity Square Health Centre,24 West Street,,Gateshead,Tyne and Wear,NE8 1AD,54.96345139,-1.603928804,00F,NHS Gateshead CCG,0191 300 9889,gccg.bridgesmp@nhs.net,http://www.bridgesmedicalpractice.co.uk,0191 478 3501
3472,A85616,GP,UNKNOWN,Visible,TRUE,FALSE,Hollyhurst Medical Centre,8 Front Street,,Blaydon On Tyne,Blaydon-On-Tyne,,NE21 4RD,54.95520401,-1.723524332,00F,NHS Gateshead CCG,0191 499 0966,,,0191 414 2891
3474,A85620,GP,UNKNOWN,Visible,TRUE,FALSE,Grange Road Medical Practice,Grange Road,,Ryton,Tyne and Wear,,NE40 3LT,54.97239685,-1.763428807,00F,NHS Gateshead CCG,0191 413 1399,,,0191 413 1561
3475,A86003,GP,UNKNOWN,Visible,TRUE,TRUE,Saville Medical Group (Saville Place),7 Saville Place,,Newcastle Upon Tyne,,,NE1 8DQ,54.97612381,-1.609582543,00G,NHS Newcastle North And East CCG,0191 232 4274,,http://www.savillemed.co.uk,0191 233 1050
3476,A86003,GP,UNKNOWN,Visible,TRUE,TRUE,Saville Medical Group (Newbiggin Hall),285 Trevelyan Drive,Newbiggin Hall Estate,Newcastle Upon Tyne,,,NE5 4BP,55.00599289,-1.683291554,00G,NHS Newcastle North And East CCG,0191 286 9240,,http://www.savillemed.co.uk,0191 271 5710
3477,A86004,GP,UNKNOWN,Visible,TRUE,FALSE,Dr Kelliher & Partners,501 Westgate Road,,Newcastle Upon Tyne,,,NE4 8AY,54.97407913,-1.646220922,00H,NHS Newcastle West CCG,0191 226 0226,,http://www.prospectmedicalgroup.nhs.uk,0191 226 6496
3478,A86005,GP,UNKNOWN,Visible,TRUE,TRUE,Dr Morrison & Partners,31 West Farm Avenue,,Newcastle Upon Tyne,Tyne and Wear,,NE12 8LS,55.01204681,-1.584026933,99C,NHS North Tyneside CCG,0191 266 2215,,http://www.westfarmsurgery.com,0191 266 4028
3479,A86006,GP,UNKNOWN,Visible,TRUE,TRUE,Dr Burdon & Partners,Roseworth Surgery,27-29 Roseworth Avenue,Gosforth,Newcastle Upon Tyne,Tyne and Wear,NE3 1NB,55.00091553,-1.618981242,00H,NHS Newcastle West CCG,0191 213 2392,roseworthsurgery@nhs.net,http://www.roseworthsurgery.co.uk,0191 284 4010
3481,A86008,GP,UNKNOWN,Visible,TRUE,FALSE,Dr Summers & Partners,Kingston Park Avenue,,Kingston Park,Newcastle Upon Tyne,,NE3 2HB,55.01286316,-1.668350697,00G,NHS Newcastle North And East CCG,0191 286 0022,,,0191 271 2544
3482,A86008,GP,UNKNOWN,Visible,TRUE,FALSE,Dr Summers & Partners,Fawdon Park Road,,Fawdon,Newcastle Upon Tyne,,NE3 2PE,55.01392365,-1.645354509,00G,NHS Newcastle North And East CCG,0191 285 1763,,,0191 284 2374
3486,A86012,GP,UNKNOWN,Visible,TRUE,FALSE,West Road Medical Centre,170 West Road,,,Newcastle Upon Tyne,,NE4 9QB,54.97618484,-1.656248093,00H,NHS Newcastle West CCG,0191 2822890,west.road@nhs.net,http://www.westroadmedicalcentre.co.uk,0191 273 7279
3487,A86013,GP,UNKNOWN,Visible,TRUE,FALSE,Denton Park Medical Group,West Denton Way,,West Denton,Newcastle Upon Tyne,,NE5 2QW,54.99314499,-1.698553443,00H,NHS Newcastle West CCG,0191 229 5800,,,0191 229 5801
3488,A86015,GP,UNKNOWN,Visible,TRUE,TRUE,Holly Medical Group,17 Osborne Road,,Newcastle Upon Tyne,.,,NE2 2AH,54.98957062,-1.605294943,00G,NHS Newcastle North And East CCG,0191 281 4588,,http://www.hollymedicalgroup.co.uk,0191 281 9227
3490,A86017,GP,UNKNOWN,Visible,TRUE,FALSE,Hillsview Surgery,Hillsview Surgery,Hillsview Avenue,North Kenton,Newcastle upon Tyne,,NE3 3LB,55.0097084,-1.656226873,00H,NHS Newcastle West CCG,0191 286 0055,,,0191 271 1114
3491,A86017,GP,UNKNOWN,Visible,TRUE,FALSE,Cruddas Park Surgery,Cruddas Park Surgery,178 Westmorland Road,,Newcastle upon Tyne,,NE4 7JT,54.96766663,-1.632578254,00H,NHS Newcastle West CCG,0191 226 1414,,,0191 273 0187
3492,A86018,GP,UNKNOWN,Visible,TRUE,FALSE,Dr Nielsen & Partners,1 The Grove,Gosforth,Newcastle Upon Tyne,,,NE3 1NU,55.00222397,-1.619037509,00G,NHS Newcastle North And East CCG,0191 210 6680,,http://www.thegrovemedicalgroup.co.uk,0191 210 6682
3493,A86020,GP,UNKNOWN,Visible,TRUE,FALSE,Dr Browell and Partners,The Surgery,200 Osborne Road,Jesmond,Newcastle Upon Tyne,,NE2 3LD,54.99636841,-1.609229803,00G,NHS Newcastle North And East CCG,0191 281 4777,,http://www.thesurgery.org,0191 281 4309
3494,A86021,GP,UNKNOWN,Visible,TRUE,TRUE,Dr Price & Partners,142 Armstrong Road,,Newcastle Upon Tyne,,,NE4 8QB,54.96905136,-1.660182834,00H,NHS Newcastle West CCG,0191 273 4009,,,0191 272 3667
3495,A86021,GP,UNKNOWN,Visible,TRUE,TRUE,Dr Price & Partners,Chapel House Primary Care Centre,Hillhead Parkway,Chapel House,Newcastle Upon Tyne,,NE5 1LJ,54.99695969,-1.715171933,00H,NHS Newcastle West CCG,0191 273 4009,,,0191 238 0008
3496,A86022,GP,UNKNOWN,Visible,TRUE,TRUE,Dr Richardson & Partners,Chapel House Primary Care Centre,Hillhead Parkway,Chapel House,Newcastle upon Tyne,,NE5 1LJ,54.99695969,-1.715171933,00H,NHS Newcastle West CCG,0191 267 1773,,http://www.parkwaymedicalgroup.nhs.uk,0191 2380009
3497,A86023,GP,UNKNOWN,Visible,TRUE,TRUE,Benfield Park Medical Group,Benfield Park Healthcare & Diagnostic Centre,Benfield Road,,Newcastle upon Tyne,Tyne and Wear,NE6 4QD,54.98697281,-1.559844017,00G,NHS Newcastle North And East CCG,0191 282 1010,,http://www.benfieldparkmedicalgroup.co.uk,0191 276 5731
3498,A86024,GP,UNKNOWN,Visible,TRUE,TRUE,Heaton Road Surgery,Heaton Road Surgery,17-19 Heaton Road,Heaton,Newcastle upon Tyne,,NE6 1SA,54.97826385,-1.579829574,00G,NHS Newcastle North And East CCG,0191 265 5911,nneccg.heatonrdmanagement@nhs.net,http://www.heatonroadsurgery.nhs.net,0191 265 6974
3499,A86025,GP,UNKNOWN,Visible,TRUE,FALSE,Westerhope Medical Group,Springfield Road,,Blakelaw,Newcastle Upon Tyne,,NE5 3DS,54.99431992,-1.662939191,00H,NHS Newcastle West CCG,0191 2380018,,,
3500,A86025,GP,UNKNOWN,Visible,TRUE,FALSE,Westerhope Medical Group,452 Denton Road,Denton Burn,Newcastle Upon Tyne,,,NE15 7HD,54.97878647,-1.691177011,00H,NHS Newcastle West CCG,0191 241 1101,,,0191 241 1101
3501,A86025,GP,UNKNOWN,Visible,TRUE,FALSE,Westerhope Medical Group,377 Stamfordham Road,,Westerhope,Newcastle Upon Tyne,,NE5 2LH,54.99776077,-1.686842084,00H,NHS Newcastle West CCG,0191 243 7000,,,0191 243 7006
3504,A86028,GP,UNKNOWN,Visible,TRUE,FALSE,Regent Medical Centre,Ridley House,Henry Street,Gosforth,Newcastle upon Tyne,,NE3 1DQ,55.00905609,-1.622694135,00G,NHS Newcastle North And East CCG,0191 2236555,,http://www.regentmedicalcentre.co.uk,0191 2236549
3507,A86030,GP,UNKNOWN,Visible,TRUE,TRUE,Kenton Medical Centre (Betts Avenue Medical Centre),Kenton Medical Centre,Sherringham Avenue,Kenton,Newcastle Upon Tyne,Tyne and Wear,NE3 3QP,55.0059433,-1.65425849,00H,NHS Newcastle West CCG,0191 246 1546,bettsavenue@nhs.net,http://www.bettsavenue.nhs.uk/,0191 246 1550
3508,A86030,GP,UNKNOWN,Visible,TRUE,TRUE,Dr Black & Partners (Benwell),,2 Betts Avenue,Benwell,Newcastle Upon Tyne,Tyne and Wear,NE15 6TQ,54.97328949,-1.675831437,00H,NHS Newcastle West CCG,0191 274 2767,bettsavenue@nhs.net,http://www.bettsavenue.nhs.uk/,0191 274 0244
3509,A86031,GP,UNKNOWN,Visible,TRUE,FALSE,Dr Ashley & Partners,Fenham Hall Drive,,Fenham,Newcastle Upon Tyne,,NE4 9XD,54.98450089,-1.660318136,00H,NHS Newcastle West CCG,0191 274 3724,,www.fenhamhallmedicalgroup.nhs.uk,0191 274 5674
3510,A86033,GP,UNKNOWN,Visible,TRUE,FALSE,Brunton Park Health Centre,Princes Road,,Brunton Park,Newcastle Upon Tyne,,NE3 5NF,55.02705765,-1.626936436,00G,NHS Newcastle North And East CCG,0191 236 3338,,http://www.bruntonparkhc.nhs.uk/,0191 217 0988
3511,A86035,GP,UNKNOWN,Visible,TRUE,TRUE,Dr Chaudhary,164 Great North Road,,Gosforth,Newcastle Upon Tyne,,NE3 5JP,55.01613235,-1.621235967,00H,NHS Newcastle West CCG,0191 213 5005,,http://www.broadwaysurgery.net,0191 213 3729
3512,A86036,GP,UNKNOWN,Visible,TRUE,TRUE,Dr Taylor & Partners,Church Road,,Gosforth,Newcastle Upon Tyne,,NE3 1TX,55.00720215,-1.618943453,00G,NHS Newcastle North And East CCG,0191 285 1119,gmmc@nhs.net,www.gosforthmemorial.nhs.uk,0191 213 2611
3515,A86041,GP,UNKNOWN,Visible,TRUE,TRUE,Dr Mears & Partners,2 Swarland Avenue,,Benton,Newcastle Upon Tyne,,NE7 7TD,55.0063324,-1.578598261,99C,NHS North Tyneside CCG,0191 215 0141,,,0191 266 1358
3516,A86601,GP,UNKNOWN,Visible,TRUE,FALSE,Denton Turret Medical Centre,10 Kenley Road,Slatyford,,Newcastle upon Tyne,Tyne and Wear,NE5 2UY,54.98394012,-1.686355829,00H,NHS Newcastle West CCG,0191 274 1840,,http://www.dentonturret.co.uk,0191 228 0990
3517,A86607,GP,UNKNOWN,Visible,TRUE,FALSE,Grainger Medical Group,Adelaide Terrace,,Newcastle Upon Tyne,,,NE4 8BE,54.97008514,-1.656581402,00H,NHS Newcastle West CCG,0191 298 6060,agraingermg@nhs.net,,0191 219 5596
3518,A86607,GP,UNKNOWN,Visible,TRUE,FALSE,Grainger Medical Group,Meldon Street,,Newcastle Upon Tyne,,,NE4 6SH,54.96925735,-1.640452504,00H,NHS Newcastle West CCG,0191 298 6060,agraingermg@nhs.net,,0191 298 6084
3519,A87002,GP,UNKNOWN,Visible,TRUE,FALSE,Spring Terrace Health Centre,Spring Terrace,,North Shields,Tyne and Wear,,NE29 0HD,55.01067734,-1.451396108,99C,NHS North Tyneside CCG,0191 296 1588,spring.terrace@nhs.net,,0191 296 2901
3521,A87004,GP,UNKNOWN,Visible,TRUE,FALSE,Collingwood Surgery,Hawkeys Lane,,North Shields,Tyne and Wear,,NE29 0SF,55.01122284,-1.456580162,99C,NHS North Tyneside CCG,0191 257 1779,,http://www.collingwoodsurgery.co.uk,0191 226 9909
3522,A87004,GP,UNKNOWN,Visible,TRUE,FALSE,Dr Tapsfield & Partners,Brookland Terrace,New York,North Shields,Tyne and Wear,,NE29 8EA,55.02490234,-1.48797667,99C,NHS North Tyneside CCG,0191 258 5316,,http://www.collingwoodsurgery.co.uk,0191 257 8231
3523,A87004,GP,UNKNOWN,Visible,TRUE,FALSE,Dr Tapsfield & Partners,Cecil Street,,North Shields,Tyne and Wear,,NE29 0DZ,55.00921249,-1.451212883,99C,NHS North Tyneside CCG,0191 257 1191,,http://www.collingwoodsurgery.co.uk,0191 258 4961
3524,A87005,GP,UNKNOWN,Visible,TRUE,FALSE,Dr McManners & Partners,Whitley Road,,Whitley Bay,Tyne and Wear,,NE26 2ND,55.04151917,-1.439833164,99C,NHS North Tyneside CCG,0191 253 1113,,www.whitleybayhealthcentre.nhs.uk,0191 297 0799
3525,A87006,GP,UNKNOWN,Visible,TRUE,TRUE,Dr Falconer & Partners,49 Marine Avenue,,,Whitley Bay,,NE26 1NA,55.04627228,-1.451066494,99C,NHS North Tyneside CCG,0191 252 4527,,http://www.49marineavenuesurgery.nhs.uk,0191 251 3335
3526,A87007,GP,UNKNOWN,Visible,TRUE,TRUE,Forest Hall Medical Group,Station Road,,Forest Hall,Newcastle Upon Tyne,,NE12 9BQ,55.02036667,-1.567518592,99C,NHS North Tyneside CCG,0191 259 9666,,,0191 259 9696
3527,A87008,GP,UNKNOWN,Visible,TRUE,FALSE,Marine Avenue Medical Centre,Marine Avenue,,Whitley Bay,Tyne and Wear,,NE26 3LW,55.04402161,-1.456856251,99C,NHS North Tyneside CCG,0191 252 5317,,http://www.marineavenuemc-whitleybay.nhs.uk,0191 253 5150
3528,A87009,GP,UNKNOWN,Visible,TRUE,FALSE,Tynemouth,Priory Medical Group,Tynemouth,Tyne and Wear,,,NE30 4HD,55.0182991,-1.422671676,99C,NHS North Tyneside CCG,0191 257 0223,,www.priorymedical.org.uk,0191 259 5282
3530,A87009,GP,UNKNOWN,Visible,TRUE,FALSE,Priory Medical Group,19 Albion Road,North Shields,Tyne and Wear,,,NE29 0HT,55.00996399,-1.450467706,99C,NHS North Tyneside CCG,0191 257 0223,,www.priorymedical.org.uk,0191 270 8202
3532,A87011,GP,UNKNOWN,Visible,TRUE,TRUE,Beaumont Park Medical Group,Hepscott Drive,Beaumont Park,Whitley Bay,Tyne and Wear,,NE25 9XJ,55.04807663,-1.473360419,99C,NHS North Tyneside CCG,0191 251 4548,,http://www.beaumontparkmedicalgroup.co.uk,0191 251 5805
3533,A87012,GP,UNKNOWN,Visible,TRUE,TRUE,Dr May and Partners,Great North Road,,Wideopen,Newcastle Upon Tyne,,NE13 6LN,55.04825974,-1.624517083,99C,NHS North Tyneside CCG,0191 236 2115,,,0191 236 2116
3534,A87012,GP,UNKNOWN,Visible,TRUE,TRUE,Dr May and Partners,Market Street,Dudley,Cramlington,Northumberland,,NE23 7HR,55.05620956,-1.593431711,99C,NHS North Tyneside CCG,0191 250 0219,,,0191 250 2031
3537,A87014,GP,UNKNOWN,Visible,TRUE,FALSE,Longbenton,Oxford Centre,West Farm Avenue,Longbenton,,,NE12 8LT,55.01162338,-1.586470723,99C,NHS North Tyneside CCG,0191 251 7139,,,0191 251 8936
3539,A87016,GP,UNKNOWN,Visible,TRUE,TRUE,The Village Green Surgery,The Green,,Wallsend,Tyne and Wear,,NE28 6BB,54.99647141,-1.529229403,99C,NHS North Tyneside CCG,0191 295 8500,,http://www.villagegreensurgery-wallsend.nhs.uk,0191 295 8519
3542,A87019,GP,UNKNOWN,Visible,TRUE,TRUE,Nelson Health Group,Cecil Street,,North Shields,Tyne and Wear,,NE29 0DZ,55.00921249,-1.451212883,99C,NHS North Tyneside CCG,0191 257 1204,,,0191 258 7191
3544,A87022,GP,UNKNOWN,Visible,TRUE,TRUE,Northumberland Park Medical Group,Shiremoor Resource Centre,Earsdon Road,Shiremoor,Newcastle Upon Tyne,,NE27 0HJ,55.03812408,-1.506146789,99C,NHS North Tyneside CCG,0191 253 7892,,www.northumberlandparkmedicalgroup.nhs.uk,0191 251 5035
3545,A87023,GP,UNKNOWN,Visible,TRUE,TRUE,Dr D Smith & Partners,Shiremoor Resource Centre,Earsdon Road,Shiremoor,Newcastle Upon Tyne,,NE27 0HJ,55.03812408,-1.506146789,99C,NHS North Tyneside CCG,0191 253 2578,,www.drsmithandpartners.com,0191 251 9590
3546,A87027,GP,UNKNOWN,Visible,TRUE,TRUE,Dr Abraham & Partners,Denbigh Avenue,Howdon,Wallsend,Tyne and Wear,,NE28 0PP,55.00117111,-1.497689724,99C,NHS North Tyneside CCG,0191 289 2525,,http://www.nnt.nhs.uk/gardenpark/,0191 289 2526
3547,A87027,GP,UNKNOWN,Visible,TRUE,TRUE,Dr Abraham & Partners,Citadel East,,Killingworth,Newcastle Upon Tyne,,NE12 6SS,55.0355072,-1.565039992,99C,NHS North Tyneside CCG,0191 268 8966,,http://www.nnt.nhs.uk/whiteswan/,0191 268 8333
3548,A87029,GP,UNKNOWN,Visible,TRUE,FALSE,Park Road Medical Practice,93 Park Road,,Wallsend,Tyne & Wear,Tyne and Wear,NE28 7LP,54.99276352,-1.5318048,99C,NHS North Tyneside CCG,0191 262 5680,,http://www.parkroadpracticewallsend.nhs.uk/,0191 262 3646
3549,A87030,GP,UNKNOWN,Visible,TRUE,TRUE,Redburn Park Medical Centre,15 Station Road  ,Percy Main,North Shields,Tyne and Wear,,NE29 6HT,55.00086975,-1.474807143,99C,NHS North Tyneside CCG,0191 296 1456,,http://www.redburnpark.co.uk/,0191 257 3127
3550,A87600,GP,UNKNOWN,Visible,TRUE,TRUE,Dr Smith & Partners,69 Park Parade,,Whitley Bay,Tyne and Wear,,NE26 1DU,55.04272842,-1.450504661,99C,NHS North Tyneside CCG,0191 252 3135,,http://www.parkparadesurgery-whitleybay.nhs.uk,0191 253 3566
3551,A87612,GP,UNKNOWN,Visible,TRUE,TRUE,Dr Findlay & Partners,Killingworth Health Centre,Citadel East,Killingworth,Newcastle Upon Tyne,,NE12 6HS,55.03718567,-1.56433332,99C,NHS North Tyneside CCG,0191 216 4920,,,0191 216 4928
3552,A87615,GP,UNKNOWN,Visible,TRUE,TRUE,Dr Preston & Dr Austin.,Citadel East,,Killingworth,Newcastle Upon Tyne,,NE12 6HS,55.03718567,-1.56433332,99C,NHS North Tyneside CCG,0191 216 0061,enquiries.prestonandaustin@nhs.net,http://www.drsprestonandaustin.co.uk,0191 268 5360
3553,A88001,GP,UNKNOWN,Visible,TRUE,FALSE,Dr Vinayak & Partners,Victoria Medical Centre,12-28 Glen Street,Hebburn,Hebburn,Tyne and Wear,NE31 1NU,54.97382736,-1.521854877,00N,NHS South Tyneside CCG,0191 483 2106,,,0191 428 5270
3554,A88001,GP,UNKNOWN,Visible,TRUE,FALSE,Drs Vinayak & Partners,158 Calf Close Lane,,Jarrow,Jarrow,,NE32 4DU,54.95911789,-1.478834033,00N,NHS South Tyneside CCG,0191 428 0448,,,
3555,A88002,GP,UNKNOWN,Visible,TRUE,FALSE,Farnham Medical Centre,435 Stanhope Road,,,South Shields,Tyne and Wear,NE33 4QY,54.97555161,-1.438001633,00N,NHS South Tyneside CCG,0191 455 4748,stynccg.farnhammedicalcentre@nhs.net,http://farnhammedicalcentre.nhs.uk/,0191 455 8573
3556,A88003,GP,UNKNOWN,Visible,TRUE,FALSE,Dr Muchall & Partners,Marsden Road Health Centre,Marsden Road,,South Shields,,NE34 6RE,54.98053741,-1.400135279,00N,NHS South Tyneside CCG,0191 2832861,,,0191 2832859
3557,A88004,GP,UNKNOWN,Visible,TRUE,TRUE,Dr Dias & Partners,Park Road,,Jarrow,Tyne and Wear,,NE32 5SE,54.97793579,-1.496448517,00N,NHS South Tyneside CCG,0191 489 7183,,,0191 483 2001
3558,A88005,GP,UNKNOWN,Visible,TRUE,FALSE,Dr Haque ,171 Wenlock Road,,South Shields,Tyne and Wear,,NE34 9BP,54.97265625,-1.455194831,00N,NHS South Tyneside CCG,0191 456 0463,,,0191 454 5525
3559,A88005,GP,UNKNOWN,Visible,TRUE,FALSE,Dr Haque ,Dale Street,,South Shields,Tyne and Wear,,NE33 2PG,54.99852371,-1.427035451,00N,NHS South Tyneside CCG,0191 283 2020,sharon.richards@gp-a88005.nhs.uk,,0191 283 2029
3560,A88006,GP,UNKNOWN,Visible,TRUE,FALSE,Talbot Medical Centre,Stanley Street,,South Shields,Tyne and Wear,,NE34 0BX,54.97305679,-1.440660954,00N,NHS South Tyneside CCG,0191 455 3867,talbotmc@stpct.nhs.uk,www.talbot-medical.co.uk,0191 454 3825
3561,A88007,GP,UNKNOWN,Visible,TRUE,FALSE,Dr Bhalla & Partners,,Wawn Street,,South Shields,Tyne and Wear,NE33 4DX,54.98731613,-1.426819921,00N,NHS South Tyneside CCG,0191 454 2211,,http://www.wawn-street-surgery.nhs.uk,0191 454 0942
3562,A88008,GP,UNKNOWN,Visible,TRUE,FALSE,Dr Perrins & Partners,Trinity Medical Centre,New George Street,South Shields,Tyne and Wear,,NE33 5DU,54.98773956,-1.436784387,00N,NHS South Tyneside CCG,0191 4560053,stynccg.trinitymc@nhs.net,http://www.trinitymedicalcentre.nhs.uk,0191 454 6787
3563,A88009,GP,UNKNOWN,Visible,TRUE,TRUE,Dr Thorniley-Walker & Partners,The Medical Centre,Gibson Court,,Boldon Colliery,Tyne and Wear,NE35 9AN,54.94976425,-1.460672259,00N,NHS South Tyneside CCG,0191 519 3000,gibson.court@nhs.net,http://boldongp.nhs.uk/,0191 519 2020
3564,A88010,GP,UNKNOWN,Visible,TRUE,FALSE,Dr McManus & Hassan,118 Albert Road,,Jarrow,,,NE32 5AG,54.97806168,-1.491494179,00N,NHS South Tyneside CCG,0191 489 7002,,,0191 428 5640
3566,A88012,GP,UNKNOWN,Visible,TRUE,FALSE,Dr Brady & Partners,Campbell Park Road,,Hebburn,Tyne and Wear,,NE31 2SP,54.97336578,-1.507534981,00N,NHS South Tyneside CCG,0191 2831610,,,0191 2831620
3567,A88013,GP,UNKNOWN,Visible,TRUE,TRUE,Dr Gallagher & Partners,Cleadon Park Primary Care Centre,Prince Edward Road,South Shields,Tyne and Wear,,NE34 7QD,54.97317886,-1.398667097,00N,NHS South Tyneside CCG,0191 455 4621,centralsurgery.enquiries@gp-a88013.nhs.uk,www.centralsurgerysouthshields.nhs.uk,0191 427 3180
3569,A88015,GP,UNKNOWN,Visible,TRUE,FALSE,St George Medical Centre,New George Street,,South Shields,,,NE33 5DU,54.98773956,-1.436784387,00N,NHS South Tyneside CCG,0191 455 5958,,http://www.stgeorgemedicalcentre.co.uk,0191 456 5828
3572,A88020,GP,UNKNOWN,Visible,TRUE,FALSE,Dr Chander,Flagg Court Health Centre,Dale Street,,South Shields,Tyne and Wear,NE33 2PG,54.99852371,-1.427035451,00N,NHS South Tyneside CCG,0191 283 2010,,,0191 283 2019
3573,A88020,GP,UNKNOWN,Visible,TRUE,FALSE,Dr Chander,43 East View,,Boldon Colliery,Tyne and Wear,,NE35 9AU,54.94781494,-1.461041808,00N,NHS South Tyneside CCG,0191 537 3202,,,0191 537 3202
3575,A88023,GP,UNKNOWN,Visible,TRUE,FALSE,Whitburn Surgery,3 Bryers Street,Whitburn,Sunderland,Tyne and Wear,,SR6 7EE,54.95277023,-1.364683032,00N,NHS South Tyneside CCG,0191 529 3039,,,0191 529 5436
3578,A88601,GP,UNKNOWN,Visible,TRUE,FALSE,Dr Anji Curry,78 Imeary Street,,South Shields,Tyne and Wear,,NE33 4EG,54.98753357,-1.424785256,00N,NHS South Tyneside CCG,0191 456 3824,,,0191 427 5145
3579,A88603,GP,UNKNOWN,Visible,TRUE,FALSE,The Park Surgery,The Glen Primary Care Centre,Glen Street,Hebburn,Tyne and Wear,,NE31 1NU,54.97382736,-1.521854877,00N,NHS South Tyneside CCG,0191 283 2280,,,0191 283 2285
3580,A88608,GP,UNKNOWN,Visible,TRUE,FALSE,The Medical Centre - Dr. S Vis-Nathan,Wear Street,Jarrow,Tyne and Wear,,,NE32 3JN,54.98040771,-1.493652105,00N,NHS South Tyneside CCG,0191 428 0606,info@jarrowmedicalcentre.co.uk,http://www.ravensworthsurgery.co.uk,0191 428 1516
3581,A88608,GP,UNKNOWN,Visible,TRUE,FALSE,Ravensworth Surgery,Horsely Hill Road,,South Shields,Tyne and Wear,,NE33 3ET,54.98780441,-1.421274781,00N,NHS South Tyneside CCG,0191 455 2093,address-stynccg.a88608@nhs.net,http://www.ravensworthsurgery.co.uk,0191 427 6159
3582,A88611,GP,UNKNOWN,Visible,TRUE,FALSE,Chichester Practice,Gordon Street,,South Shields,Tyne and Wear,,NE33 4JP,54.98571777,-1.431226611,00N,NHS South Tyneside CCG,0191 2834800,,http://chichesterpractice.nhs.uk,0191 2834809
3583,A88613,GP,UNKNOWN,Visible,TRUE,FALSE,Dr Zaidi & Partners,East Wing Surgery,Palmer Community Hospital,Wear Street,Jarrow,,NE32 3UX,54.98078156,-1.492787957,00N,NHS South Tyneside CCG,0191 402 8075,,http://eastwingsurgery.nhs.uk/,0191 402 8019
3586,A89001,GP,UNKNOWN,Visible,TRUE,TRUE,Deerness Park Medical Group,Suffolk Street,,Sunderland,.,,SR2 8AD,54.89999771,-1.372795939,00P,NHS Sunderland CCG,0191 565 8849,,http://www.deernesspark.co.uk,0191 565 0075
3587,A89001,GP,UNKNOWN,Visible,TRUE,TRUE,Dr Owen & Partners,Bunny Hill Centre,Hylton Lane,Sunderland,Tyne and Wear,,SR5 4BW,54.92643738,-1.447003126,00P,NHS Sunderland CCG,0191 5193222,,http://www.deernesspark.co.uk,0191 519 5888
3588,A89002,GP,UNKNOWN,Visible,TRUE,FALSE,Dr Bhate & El-Shakankery,Borough Road,Hendon,Sunderland,,,SR1 2HJ,54.90550232,-1.373318672,00P,NHS Sunderland CCG,0191 567 3393,,http://www.sunderland.nhs.uk/bhate/,0191 510 3417
3589,A89003,GP,UNKNOWN,Visible,TRUE,TRUE,Dr Vakharia & Dr Hegde,The Galleries,,Washington,Tyne and Wear,Tyne and Wear,NE38 7NQ,54.89879227,-1.531335592,00P,NHS Sunderland CCG,0191 416 1841,info@drvandhonline.com  ,http://www.drvandhonline.com/,0191 417 0531
3590,A89004,GP,UNKNOWN,Visible,TRUE,TRUE,Hetton Group Practice,Francis Way,,Houghton Le Spring,Tyne and Wear,,DH5 9EZ,54.82530594,-1.449070096,00P,NHS Sunderland CCG,0191 526 1177,,http://www.hettongp.nhs.uk/,0191 517 3859
3591,A89005,GP,UNKNOWN,Visible,TRUE,TRUE,Villette Surgery,Suffolk Street,Sunderland,Tyne and Wear,,,SR2 8AX,54.89999771,-1.372795939,00P,NHS Sunderland CCG,0191 567 9361,secretary@gp-a89005.nhs uk,http://www.villettesurgery.nhs.uk,0191 514 7476
3592,A89006,GP,UNKNOWN,Visible,TRUE,FALSE,Dr Shetty & Sagi,Hylton Road,,Sunderland,Tyne and Wear,,SR4 7XF,54.90452194,-1.410240412,00P,NHS Sunderland CCG,0191 5689510,,http://www.shettygp.nhs.uk,0191 510 3558
3595,A89009,GP,UNKNOWN,Visible,TRUE,FALSE,Dr Birrell & Partners,Philadelphia Lane,,Houghton Le Spring,Tyne and Wear,,DH4 4LE,54.86574173,-1.483357072,00P,NHS Sunderland CCG,0191 584 2632,,www.herringtonmc.nhs.uk,0191 584 3786
3596,A89010,GP,UNKNOWN,Visible,TRUE,FALSE,Dr Stephenson & Partners,Victoria Road,Concord,Washington,Tyne and Wear,,NE37 2PU,54.91333389,-1.524833679,00P,NHS Sunderland CCG,0191 416 2578,,,0191 416 6091
3597,A89011,GP,UNKNOWN,Visible,TRUE,TRUE,The Village Surgery,Silksworth Road,,Sunderland,Tyne and Wear,,SR3 2AN,54.87093735,-1.407170177,00P,NHS Sunderland CCG,0191 521 2282 ext 5,,http://www.villagesurgerysilksworth.nhs.uk,0191 523 5827
3598,A89012,GP,UNKNOWN,Visible,TRUE,FALSE,Dr Dixit & Dr NR Kolla,The Galleries Health Centre,The Galleries,Washington,Tyne and Wear,,NE38 7NQ,54.89879227,-1.531335592,00P,NHS Sunderland CCG,0191 416 6084,,http://www.dixitkollagp.nhs.uk,0191 416 6434
3599,A89013,GP,UNKNOWN,Visible,TRUE,FALSE,Dr Partington & Partners,Tatham Street,,Sunderland,,,SR1 2QB,54.90443802,-1.376625896,00P,NHS Sunderland CCG,0191 567 5571,,http://www.newcitymedicalcentre.co.uk,0191 510 2746
3600,A89014,GP,UNKNOWN,Visible,TRUE,FALSE,Roker Family Practice,51-52 Roker Avenue,,Sunderland,Tyne and Wear,,SR6 0HT,54.91691971,-1.374685764,00P,NHS Sunderland CCG,0191 567 8023,,http://www.sunderland.nhs.uk/roker/,0191 514 7430
3602,A89016,GP,UNKNOWN,Visible,TRUE,FALSE,St Bede Medical Centre,Lower Dundas Street,,Sunderland,Tyne and Wear,,SR6 0QQ,54.91384506,-1.377806425,00P,NHS Sunderland CCG,0191 567 5335,,http://www.stbedegpsunderland.co.uk,0191 510 2495
3604,A89018,GP,UNKNOWN,Visible,TRUE,FALSE,Ashburn Medical Centre,74-75 Toward Road,,Sunderland,Tyne and Wear,,SR2 8JG,54.89518738,-1.373915315,00P,NHS Sunderland CCG,0191 567 1035,,http://www.ashburnmedicalcentre.nhs.uk,0191 514 0071
3605,A89019,GP,UNKNOWN,Visible,TRUE,FALSE,Dr Cloak & Partners,The Green,Southwick,Sunderland,,,SR5 2LT,54.91931152,-1.401763678,00P,NHS Sunderland CCG,0191 516 3940,,http://www.sunderland.nhs.uk/cloak/,0191 516 3959
3608,A89022,GP,UNKNOWN,Visible,TRUE,FALSE,Concord Medical Practice,Victoria Road,,Washington,Tyne and Wear,,NE37 2PU,54.91333389,-1.524833679,00P,NHS Sunderland CCG,0191 417 3557,,http://www.sunderland.nhs.uk/fairs/,0191 415 7382
3610,A89024,GP,UNKNOWN,Visible,TRUE,FALSE,The Broadway Medical Practice,Springwell Health Centre,Springwell,,Sunderland,,SR3 4HG,54.89027023,-1.422149062,00P,NHS Sunderland CCG,0191 522 9908,,http://www.broadwaymedicalpractice.nhs.uk/,0191 528 8294
3611,A89025,GP,UNKNOWN,Visible,TRUE,FALSE,Encompass Health Care,Health Centre,The Galleries,Washington Centre,Washington,Tyne and Wear,NE38 7NQ,54.89879227,-1.531335592,00P,NHS Sunderland CCG,0191 4166130,,http://www.encompasshealthcare.org.uk,0191 4166344
3612,A89026,GP,UNKNOWN,Visible,TRUE,FALSE,Dr Ray,Concord,Washington,Tyne and Wear,,,NE37 2PU,54.91333389,-1.524833679,00P,NHS Sunderland CCG,0191 415 5656,,http://www.sunderland.nhs.uk/ray,0191 417 8100
3613,A89027,GP,UNKNOWN,Visible,TRUE,FALSE,Dr Sharma & Partners,Ald Jack Cohen Health Centre,Springwell Road,Sunderland,,,SR3 4HG,54.89027023,-1.422149062,00P,NHS Sunderland CCG,0191 528 2727,,http://www.sunderland.nhs.uk/sharma/,0191 528 3262
3614,A89028,GP,UNKNOWN,Visible,TRUE,FALSE,Dr Wallace & Partners,Chester Road,Shiney Row,Houghton Le Spring,Tyne and Wear,,DH4 4RB,54.86631393,-1.497824192,00P,NHS Sunderland CCG,0191 385 2898,,http://www.sunderland.nhs.uk/grangewood,0191 385 8265
